[ {
  "zip" : "60623",
  "police_district" : "10",
  "location" : {
    "needs_recoding" : false,
    "longitude" : "-87.70536476449553",
    "latitude" : "41.85369723230025"
  },
  "status" : "Open - Dup",
  "service_request_number" : "14-01890395",
  "x_coordinate" : "1155346.83269271",
  "creation_date" : "2014-11-02T00:00:00",
  "ward" : "24",
  "y_coordinate" : "1889862.75548637",
  "longitude" : "-87.70536476449553",
  "community_area" : "29",
  "type_of_service_request" : "Pothole in Street",
  "latitude" : "41.85369723230025",
  "street_address" : "3200 W 21ST ST"
}
, {
  "zip" : "60628",
  "police_district" : "5",
  "location" : {
    "needs_recoding" : false,
    "longitude" : "-87.61124747332647",
    "latitude" : "41.68539921048635"
  },
  "status" : "Open",
  "service_request_number" : "14-01887832",
  "x_coordinate" : "1181531.73997831",
  "creation_date" : "2014-11-02T00:00:00",
  "ward" : "9",
  "y_coordinate" : "1828795.17101115",
  "longitude" : "-87.61124747332647",
  "community_area" : "54",
  "type_of_service_request" : "Pothole in Street",
  "latitude" : "41.68539921048635",
  "street_address" : "11500 S COTTAGE GROVE AVE"
}
, {
  "zip" : "60632",
  "police_district" : "9",
  "location" : {
    "needs_recoding" : false,
    "longitude" : "-87.7001626068182",
    "latitude" : "41.80803440118064"
  },
  "status" : "Open",
  "ssa" : "39",
  "service_request_number" : "14-01887998",
  "x_coordinate" : "1156829.75401564",
  "creation_date" : "2014-11-02T00:00:00",
  "ward" : "14",
  "y_coordinate" : "1873306.18042358",
  "longitude" : "-87.7001626068182",
  "community_area" : "58",
  "type_of_service_request" : "Pothole in Street",
  "latitude" : "41.80803440118064",
  "street_address" : "4703 S WHIPPLE ST"
}
, {
  "zip" : "60646",
  "police_district" : "16",
  "location" : {
    "needs_recoding" : false,
    "longitude" : "-87.76486774711373",
    "latitude" : "41.993981772542945"
  },
  "status" : "Open",
  "service_request_number" : "14-01888130",
  "x_coordinate" : "1138710.15999472",
  "creation_date" : "2014-11-02T00:00:00",
  "ward" : "41",
  "y_coordinate" : "1940800.67998146",
  "longitude" : "-87.76486774711373",
  "community_area" : "12",
  "type_of_service_request" : "Pothole in Street",
  "latitude" : "41.993981772542945",
  "street_address" : "6151 N CENTRAL AVE"
}
, {
  "zip" : "60646",
  "police_district" : "17",
  "location" : {
    "needs_recoding" : false,
    "longitude" : "-87.74090626227893",
    "latitude" : "41.9851558336398"
  },
  "status" : "Open",
  "service_request_number" : "14-01888134",
  "x_coordinate" : "1145351.71369163",
  "creation_date" : "2014-11-02T00:00:00",
  "ward" : "39",
  "y_coordinate" : "1937763.46779379",
  "longitude" : "-87.74090626227893",
  "community_area" : "12",
  "type_of_service_request" : "Pothole in Street",
  "latitude" : "41.9851558336398",
  "street_address" : "5700 N CALDWELL AVE"
}
, {
  "zip" : "60661",
  "police_district" : "12",
  "location" : {
    "needs_recoding" : false,
    "longitude" : "-87.6455811380062",
    "latitude" : "41.886016705907636"
  },
  "status" : "Open",
  "service_request_number" : "14-01888447",
  "x_coordinate" : "1171559.19102162",
  "creation_date" : "2014-11-02T00:00:00",
  "ward" : "27",
  "y_coordinate" : "1901806.4702136",
  "longitude" : "-87.6455811380062",
  "community_area" : "28",
  "type_of_service_request" : "Pothole in Street",
  "latitude" : "41.886016705907636",
  "street_address" : "208 N UNION AVE"
}
, {
  "zip" : "60657",
  "police_district" : "19",
  "location" : {
    "needs_recoding" : false,
    "longitude" : "-87.66962165233639",
    "latitude" : "41.940484164433805"
  },
  "status" : "Open",
  "ssa" : "27",
  "service_request_number" : "14-01888459",
  "x_coordinate" : "1164874.90359535",
  "creation_date" : "2014-11-02T00:00:00",
  "ward" : "32",
  "y_coordinate" : "1921642.69006677",
  "longitude" : "-87.66962165233639",
  "community_area" : "6",
  "type_of_service_request" : "Pothole in Street",
  "latitude" : "41.940484164433805",
  "street_address" : "1623 W MELROSE ST"
}
, {
  "zip" : "60707",
  "police_district" : "25",
  "location" : {
    "needs_recoding" : false,
    "longitude" : "-87.80079380554433",
    "latitude" : "41.922447305985195"
  },
  "status" : "Open",
  "service_request_number" : "14-01888657",
  "x_coordinate" : "1129202.42671208",
  "creation_date" : "2014-11-02T00:00:00",
  "ward" : "36",
  "y_coordinate" : "1914740.04723358",
  "longitude" : "-87.80079380554433",
  "community_area" : "18",
  "type_of_service_request" : "Pothole in Street",
  "latitude" : "41.922447305985195",
  "street_address" : "7000 W MEDILL AVE"
}
, {
  "zip" : "60621",
  "police_district" : "7",
  "location" : {
    "needs_recoding" : false,
    "longitude" : "-87.63316074610619",
    "latitude" : "41.7594341063487"
  },
  "status" : "Open",
  "service_request_number" : "14-01888874",
  "x_coordinate" : "1175239.68988977",
  "creation_date" : "2014-11-02T00:00:00",
  "ward" : "17",
  "y_coordinate" : "1855781.84257411",
  "longitude" : "-87.63316074610619",
  "community_area" : "69",
  "type_of_service_request" : "Pothole in Street",
  "latitude" : "41.7594341063487",
  "street_address" : "7415 S HARVARD AVE"
}
, {
  "zip" : "60647",
  "police_district" : "14",
  "location" : {
    "needs_recoding" : false,
    "longitude" : "-87.68184676005757",
    "latitude" : "41.91930922261536"
  },
  "status" : "Open",
  "service_request_number" : "14-01889286",
  "x_coordinate" : "1161740.16499002",
  "creation_date" : "2014-11-02T00:00:00",
  "ward" : "32",
  "y_coordinate" : "1913825.88481588",
  "longitude" : "-87.68184676005757",
  "community_area" : "22",
  "type_of_service_request" : "Pothole in Street",
  "latitude" : "41.91930922261536",
  "street_address" : "2142 W DICKENS AVE"
}
, {
  "location" : {
    "needs_recoding" : false,
    "longitude" : "-87.66129465349978",
    "latitude" : "41.90638366070321"
  },
  "status" : "Open",
  "ssa" : "33",
  "service_request_number" : "14-01889417",
  "creation_date" : "2014-11-02T00:00:00",
  "longitude" : "-87.66129465349978",
  "type_of_service_request" : "Pothole in Street",
  "latitude" : "41.90638366070321",
  "street_address" : "1339 N KENNEDY EXPY IB"
}
, {
  "zip" : "60630",
  "police_district" : "16",
  "location" : {
    "needs_recoding" : false,
    "longitude" : "-87.75521088196481",
    "latitude" : "41.96895936916722"
  },
  "status" : "Open",
  "service_request_number" : "14-01889556",
  "x_coordinate" : "1141506.33867481",
  "creation_date" : "2014-11-02T00:00:00",
  "ward" : "45",
  "y_coordinate" : "1931770.08759463",
  "longitude" : "-87.75521088196481",
  "community_area" : "11",
  "type_of_service_request" : "Pothole in Street",
  "latitude" : "41.96895936916722",
  "street_address" : "5100 W GUNNISON ST"
}
, {
  "zip" : "60620",
  "police_district" : "6",
  "location" : {
    "needs_recoding" : false,
    "longitude" : "-87.67432247425725",
    "latitude" : "41.742834711784276"
  },
  "status" : "Open",
  "service_request_number" : "14-01889585",
  "x_coordinate" : "1164136.54997862",
  "creation_date" : "2014-11-02T00:00:00",
  "ward" : "18",
  "y_coordinate" : "1849602.94001056",
  "longitude" : "-87.67432247425725",
  "community_area" : "71",
  "type_of_service_request" : "Pothole in Street",
  "latitude" : "41.742834711784276",
  "street_address" : "8300 S SEELEY AVE"
}
, {
  "zip" : "60623",
  "police_district" : "9",
  "location" : {
    "needs_recoding" : false,
    "longitude" : "-87.69506587556428",
    "latitude" : "41.832507118869415"
  },
  "status" : "Open",
  "service_request_number" : "14-01889621",
  "x_coordinate" : "1158242.27900184",
  "creation_date" : "2014-11-02T00:00:00",
  "ward" : "12",
  "y_coordinate" : "1882179.51572383",
  "longitude" : "-87.69506587556428",
  "community_area" : "30",
  "type_of_service_request" : "Pothole in Street",
  "latitude" : "41.832507118869415",
  "street_address" : "2800 W OB STEVENSON EXPY"
}
, {
  "zip" : "60657",
  "police_district" : "19",
  "location" : {
    "needs_recoding" : false,
    "longitude" : "-87.66246597682895",
    "latitude" : "41.944244666929585"
  },
  "status" : "Open",
  "ssa" : "27",
  "service_request_number" : "14-01889651",
  "x_coordinate" : "1166863.42010273",
  "creation_date" : "2014-11-02T00:00:00",
  "ward" : "44",
  "y_coordinate" : "1923029.87847712",
  "longitude" : "-87.66246597682895",
  "community_area" : "6",
  "type_of_service_request" : "Pothole in Street",
  "latitude" : "41.944244666929585",
  "street_address" : "1323 W NEWPORT AVE"
}
, {
  "zip" : "60619",
  "police_district" : "6",
  "location" : {
    "needs_recoding" : false,
    "longitude" : "-87.61378032704762",
    "latitude" : "41.7357177574042"
  },
  "status" : "Open",
  "service_request_number" : "14-01889836",
  "x_coordinate" : "1180551.98580115",
  "creation_date" : "2014-11-02T00:00:00",
  "ward" : "6",
  "y_coordinate" : "1847065.62981004",
  "longitude" : "-87.61378032704762",
  "community_area" : "44",
  "type_of_service_request" : "Pothole in Street",
  "latitude" : "41.7357177574042",
  "street_address" : "416 E 87TH PL"
}
, {
  "zip" : "60654",
  "police_district" : "12",
  "location" : {
    "needs_recoding" : false,
    "longitude" : "-87.64722933286838",
    "latitude" : "41.8962811730044"
  },
  "status" : "Open",
  "service_request_number" : "14-01890090",
  "x_coordinate" : "1171215.90801298",
  "creation_date" : "2014-11-02T00:00:00",
  "ward" : "27",
  "y_coordinate" : "1905592.66251669",
  "longitude" : "-87.64722933286838",
  "community_area" : "24",
  "type_of_service_request" : "Pothole in Street",
  "latitude" : "41.8962811730044",
  "street_address" : "731 W CHICAGO AVE"
}
, {
  "zip" : "60647",
  "police_district" : "14",
  "location" : {
    "needs_recoding" : false,
    "longitude" : "-87.68792223553898",
    "latitude" : "41.92866978990974"
  },
  "status" : "Open",
  "service_request_number" : "14-01890222",
  "x_coordinate" : "1159917.60801649",
  "creation_date" : "2014-11-02T00:00:00",
  "ward" : "1",
  "y_coordinate" : "1917245.79463179",
  "longitude" : "-87.68792223553898",
  "community_area" : "22",
  "type_of_service_request" : "Pothole in Street",
  "latitude" : "41.92866978990974",
  "street_address" : "2600 N WESTERN AVE"
}
, {
  "zip" : "60623",
  "police_district" : "10",
  "location" : {
    "needs_recoding" : false,
    "longitude" : "-87.70541655569887",
    "latitude" : "41.85552552648056"
  },
  "status" : "Open",
  "service_request_number" : "14-01890392",
  "x_coordinate" : "1155327.82841333",
  "creation_date" : "2014-11-02T00:00:00",
  "ward" : "24",
  "y_coordinate" : "1890528.87230078",
  "longitude" : "-87.70541655569887",
  "community_area" : "29",
  "type_of_service_request" : "Pothole in Street",
  "latitude" : "41.85552552648056",
  "street_address" : "3200 W 19TH ST"
}
, {
  "zip" : "60623",
  "police_district" : "10",
  "location" : {
    "needs_recoding" : false,
    "longitude" : "-87.70556947426772",
    "latitude" : "41.85761863537036"
  },
  "status" : "Open",
  "service_request_number" : "14-01890398",
  "x_coordinate" : "1155303.50329945",
  "creation_date" : "2014-11-02T00:00:00",
  "ward" : "24",
  "y_coordinate" : "1891374.65896829",
  "longitude" : "-87.70556947426772",
  "community_area" : "29",
  "type_of_service_request" : "Pothole in Street",
  "latitude" : "41.85761863537036",
  "street_address" : "1800 S KEDZIE AVE"
}
, {
  "zip" : "60632",
  "police_district" : "8",
  "location" : {
    "needs_recoding" : false,
    "longitude" : "-87.71437962341568",
    "latitude" : "41.80801300518807"
  },
  "status" : "Open - Dup",
  "ssa" : "39",
  "service_request_number" : "14-01887999",
  "x_coordinate" : "1153047.19798668",
  "creation_date" : "2014-11-02T00:00:00",
  "ward" : "14",
  "y_coordinate" : "1873229.64552151",
  "longitude" : "-87.71437962341568",
  "community_area" : "57",
  "type_of_service_request" : "Pothole in Street",
  "latitude" : "41.80801300518807",
  "street_address" : "4700 S ARCHER AVE"
}
, {
  "zip" : "60632",
  "police_district" : "8",
  "location" : {
    "needs_recoding" : false,
    "longitude" : "-87.71598906017655",
    "latitude" : "41.80537046589178"
  },
  "status" : "Open - Dup",
  "ssa" : "39",
  "service_request_number" : "14-01888000",
  "x_coordinate" : "1152517.96389422",
  "creation_date" : "2014-11-02T00:00:00",
  "ward" : "14",
  "y_coordinate" : "1872375.23842096",
  "longitude" : "-87.71598906017655",
  "community_area" : "57",
  "type_of_service_request" : "Pothole in Street",
  "latitude" : "41.80537046589178",
  "street_address" : "4845 S LAWNDALE AVE"
}
, {
  "zip" : "60630",
  "police_district" : "16",
  "location" : {
    "needs_recoding" : false,
    "longitude" : "-87.76725649126914",
    "latitude" : "41.965479822902594"
  },
  "status" : "Open - Dup",
  "service_request_number" : "14-01888127",
  "x_coordinate" : "1138161.19451332",
  "creation_date" : "2014-11-02T00:00:00",
  "ward" : "45",
  "y_coordinate" : "1930485.00007437",
  "longitude" : "-87.76725649126914",
  "community_area" : "15",
  "type_of_service_request" : "Pothole in Street",
  "latitude" : "41.965479822902594",
  "street_address" : "4643 N CENTRAL AVE"
}
, {
  "zip" : "60614",
  "police_district" : "19",
  "location" : {
    "needs_recoding" : false,
    "longitude" : "-87.66819450428963",
    "latitude" : "41.93074663375398"
  },
  "status" : "Open - Dup",
  "service_request_number" : "14-01888439",
  "x_coordinate" : "1165200.51619021",
  "creation_date" : "2014-11-02T00:00:00",
  "ward" : "32",
  "y_coordinate" : "1918029.10280733",
  "longitude" : "-87.66819450428963",
  "community_area" : "7",
  "type_of_service_request" : "Pothole in Street",
  "latitude" : "41.93074663375398",
  "street_address" : "2701 N ASHLAND AVE"
}
, {
  "zip" : "60618",
  "police_district" : "17",
  "location" : {
    "needs_recoding" : false,
    "longitude" : "-87.72078796004902",
    "latitude" : "41.94635134568579"
  },
  "status" : "Open - Dup",
  "service_request_number" : "14-01888747",
  "x_coordinate" : "1150970.92021783",
  "creation_date" : "2014-11-02T00:00:00",
  "ward" : "30",
  "y_coordinate" : "1923677.92060354",
  "longitude" : "-87.72078796004902",
  "community_area" : "21",
  "type_of_service_request" : "Pothole in Street",
  "latitude" : "41.94635134568579",
  "street_address" : "3717 W ADDISON ST"
}
, {
  "zip" : "60639",
  "police_district" : "25",
  "location" : {
    "needs_recoding" : false,
    "longitude" : "-87.7585818487103",
    "latitude" : "41.91846304298924"
  },
  "status" : "Open - Dup",
  "service_request_number" : "14-01888782",
  "x_coordinate" : "1140726.14961649",
  "creation_date" : "2014-11-02T00:00:00",
  "ward" : "37",
  "y_coordinate" : "1913012.75831362",
  "longitude" : "-87.7585818487103",
  "community_area" : "19",
  "type_of_service_request" : "Pothole in Street",
  "latitude" : "41.91846304298924",
  "street_address" : "2062 N LOCKWOOD AVE"
}
, {
  "zip" : "60639",
  "police_district" : "25",
  "location" : {
    "needs_recoding" : false,
    "longitude" : "-87.75206507980347",
    "latitude" : "41.91149171650224"
  },
  "status" : "Open - Dup",
  "service_request_number" : "14-01890314",
  "x_coordinate" : "1142609.87511973",
  "creation_date" : "2014-11-02T00:00:00",
  "ward" : "37",
  "y_coordinate" : "1910837.17563019",
  "longitude" : "-87.75206507980347",
  "community_area" : "25",
  "type_of_service_request" : "Pothole in Street",
  "latitude" : "41.91149171650224",
  "street_address" : "5022 W WABANSIA AVE"
}
, {
  "zip" : "60608",
  "police_district" : "10",
  "location" : {
    "needs_recoding" : false,
    "longitude" : "-87.69517224651918",
    "latitude" : "41.837277050366296"
  },
  "status" : "Open - Dup",
  "service_request_number" : "14-01890388",
  "x_coordinate" : "1158190.47409236",
  "creation_date" : "2014-11-02T00:00:00",
  "ward" : "12",
  "y_coordinate" : "1883989.26931213",
  "longitude" : "-87.69517224651918",
  "community_area" : "30",
  "type_of_service_request" : "Pothole in Street",
  "latitude" : "41.837277050366296",
  "street_address" : "3100 S CALIFORNIA AVE"
}
, {
  "zip" : "60608",
  "police_district" : "9",
  "location" : {
    "needs_recoding" : false,
    "longitude" : "-87.66550478069608",
    "latitude" : "41.83414109125062"
  },
  "status" : "Completed",
  "service_request_number" : "14-01885111",
  "number_of_potholes_filled_on_block" : "2",
  "current_activity" : "Final Outcome",
  "x_coordinate" : "1166205.2340116",
  "completion_date" : "2014-11-01T00:00:00",
  "creation_date" : "2014-11-01T00:00:00",
  "ward" : "11",
  "most_recent_action" : "Pothole Patched",
  "y_coordinate" : "1882863.18887947",
  "longitude" : "-87.66550478069608",
  "community_area" : "59",
  "type_of_service_request" : "Pothole in Street",
  "latitude" : "41.83414109125062",
  "street_address" : "3301 S ASHLAND AVE"
}
, {
  "zip" : "60608",
  "police_district" : "9",
  "location" : {
    "needs_recoding" : false,
    "longitude" : "-87.66588718054551",
    "latitude" : "41.83762234415814"
  },
  "status" : "Completed",
  "service_request_number" : "14-01885134",
  "number_of_potholes_filled_on_block" : "2",
  "current_activity" : "Final Outcome",
  "x_coordinate" : "1166170.81846579",
  "completion_date" : "2014-11-01T00:00:00",
  "creation_date" : "2014-11-01T00:00:00",
  "ward" : "11",
  "most_recent_action" : "Pothole Patched",
  "y_coordinate" : "1884149.14847147",
  "longitude" : "-87.66588718054551",
  "community_area" : "59",
  "type_of_service_request" : "Pothole in Street",
  "latitude" : "41.83762234415814",
  "street_address" : "3100 S ASHLAND AVE"
}
, {
  "zip" : "60608",
  "police_district" : "9",
  "location" : {
    "needs_recoding" : false,
    "longitude" : "-87.66583401733003",
    "latitude" : "41.835456866299246"
  },
  "status" : "Completed",
  "service_request_number" : "14-01885138",
  "number_of_potholes_filled_on_block" : "1",
  "current_activity" : "Final Outcome",
  "x_coordinate" : "1166191.56228055",
  "completion_date" : "2014-11-01T00:00:00",
  "creation_date" : "2014-11-01T00:00:00",
  "ward" : "11",
  "most_recent_action" : "Pothole Patched",
  "y_coordinate" : "1883351.97001063",
  "longitude" : "-87.66583401733003",
  "community_area" : "59",
  "type_of_service_request" : "Pothole in Street",
  "latitude" : "41.835456866299246",
  "street_address" : "3200 S ASHLAND AVE"
}
, {
  "zip" : "60608",
  "police_district" : "9",
  "location" : {
    "needs_recoding" : false,
    "longitude" : "-87.66579826723586",
    "latitude" : "41.83413659649227"
  },
  "status" : "Completed",
  "service_request_number" : "14-01885143",
  "number_of_potholes_filled_on_block" : "2",
  "current_activity" : "Final Outcome",
  "x_coordinate" : "1166204.9340116",
  "completion_date" : "2014-11-01T00:00:00",
  "creation_date" : "2014-11-01T00:00:00",
  "ward" : "11",
  "most_recent_action" : "Pothole Patched",
  "y_coordinate" : "1882874.38887947",
  "longitude" : "-87.66579826723586",
  "community_area" : "59",
  "type_of_service_request" : "Pothole in Street",
  "latitude" : "41.83413659649227",
  "street_address" : "3300 S ASHLAND AVE"
}
, {
  "zip" : "60638",
  "police_district" : "8",
  "location" : {
    "needs_recoding" : false,
    "longitude" : "-87.78431404050437",
    "latitude" : "41.79240475859746"
  },
  "status" : "Completed",
  "service_request_number" : "14-01885910",
  "number_of_potholes_filled_on_block" : "19",
  "current_activity" : "Final Outcome",
  "x_coordinate" : "1133982.35822608",
  "completion_date" : "2014-11-01T00:00:00",
  "creation_date" : "2014-11-01T00:00:00",
  "ward" : "23",
  "most_recent_action" : "Pothole Patched",
  "y_coordinate" : "1867381.3055946",
  "longitude" : "-87.78431404050437",
  "community_area" : "56",
  "type_of_service_request" : "Pothole in Street",
  "latitude" : "41.79240475859746",
  "street_address" : "6500 W ARCHER AVE"
}
, {
  "zip" : "60638",
  "police_district" : "8",
  "location" : {
    "needs_recoding" : false,
    "longitude" : "-87.7891971890099",
    "latitude" : "41.79231149896301"
  },
  "status" : "Completed",
  "service_request_number" : "14-01885919",
  "number_of_potholes_filled_on_block" : "56",
  "current_activity" : "Final Outcome",
  "x_coordinate" : "1132651.27707733",
  "completion_date" : "2014-11-01T00:00:00",
  "creation_date" : "2014-11-01T00:00:00",
  "ward" : "23",
  "most_recent_action" : "Pothole Patched",
  "y_coordinate" : "1867338.99448948",
  "longitude" : "-87.7891971890099",
  "community_area" : "56",
  "type_of_service_request" : "Pothole in Street",
  "latitude" : "41.79231149896301",
  "street_address" : "6700 W ARCHER AVE"
}
, {
  "zip" : "60638",
  "police_district" : "8",
  "location" : {
    "needs_recoding" : false,
    "longitude" : "-87.7916408330051",
    "latitude" : "41.79226470026409"
  },
  "status" : "Completed",
  "service_request_number" : "14-01885921",
  "number_of_potholes_filled_on_block" : "67",
  "current_activity" : "Final Outcome",
  "x_coordinate" : "1131985.03502629",
  "completion_date" : "2014-11-01T00:00:00",
  "creation_date" : "2014-11-01T00:00:00",
  "ward" : "23",
  "most_recent_action" : "Pothole Patched",
  "y_coordinate" : "1867317.7460772",
  "longitude" : "-87.7916408330051",
  "community_area" : "56",
  "type_of_service_request" : "Pothole in Street",
  "latitude" : "41.79226470026409",
  "street_address" : "6800 W ARCHER AVE"
}
, {
  "zip" : "60640",
  "police_district" : "20",
  "location" : {
    "needs_recoding" : false,
    "longitude" : "-87.66986471450602",
    "latitude" : "41.98084694614888"
  },
  "status" : "Completed",
  "service_request_number" : "14-01885943",
  "number_of_potholes_filled_on_block" : "20",
  "current_activity" : "Final Outcome",
  "x_coordinate" : "1164678.27327372",
  "completion_date" : "2014-11-01T00:00:00",
  "creation_date" : "2014-11-01T00:00:00",
  "ward" : "40",
  "most_recent_action" : "Pothole Patched",
  "y_coordinate" : "1936270.22009174",
  "longitude" : "-87.66986471450602",
  "community_area" : "77",
  "type_of_service_request" : "Pothole in Street",
  "latitude" : "41.98084694614888",
  "street_address" : "1600 W RASCHER AVE"
}
, {
  "zip" : "60659",
  "police_district" : "17",
  "location" : {
    "needs_recoding" : false,
    "longitude" : "-87.7179362616901",
    "latitude" : "41.99527304855081"
  },
  "status" : "Completed",
  "service_request_number" : "14-01886146",
  "number_of_potholes_filled_on_block" : "3",
  "current_activity" : "Final Outcome",
  "x_coordinate" : "1151581.782598",
  "completion_date" : "2014-11-01T00:00:00",
  "creation_date" : "2014-11-01T00:00:00",
  "ward" : "50",
  "most_recent_action" : "Pothole Patched",
  "y_coordinate" : "1941256.30401232",
  "longitude" : "-87.7179362616901",
  "community_area" : "13",
  "type_of_service_request" : "Pothole in Street",
  "latitude" : "41.99527304855081",
  "street_address" : "6252 N DRAKE AVE"
}
, {
  "zip" : "60628",
  "police_district" : "5",
  "location" : {
    "needs_recoding" : false,
    "longitude" : "-87.6250450893205",
    "latitude" : "41.672437801758264"
  },
  "status" : "Completed",
  "service_request_number" : "14-01886352",
  "number_of_potholes_filled_on_block" : "28",
  "current_activity" : "Final Outcome",
  "x_coordinate" : "1177795.63660577",
  "completion_date" : "2014-11-01T00:00:00",
  "creation_date" : "2014-11-01T00:00:00",
  "ward" : "9",
  "most_recent_action" : "Pothole Patched",
  "y_coordinate" : "1824058.02537172",
  "longitude" : "-87.6250450893205",
  "community_area" : "53",
  "type_of_service_request" : "Pothole in Street",
  "latitude" : "41.672437801758264",
  "street_address" : "12200 S PERRY AVE"
}
, {
  "zip" : "60638",
  "police_district" : "8",
  "location" : {
    "needs_recoding" : false,
    "longitude" : "-87.79652510806585",
    "latitude" : "41.79217141716548"
  },
  "status" : "Completed",
  "service_request_number" : "14-01886421",
  "number_of_potholes_filled_on_block" : "21",
  "current_activity" : "Final Outcome",
  "x_coordinate" : "1130653.97461254",
  "completion_date" : "2014-11-01T00:00:00",
  "creation_date" : "2014-11-01T00:00:00",
  "ward" : "23",
  "most_recent_action" : "Pothole Patched",
  "y_coordinate" : "1867275.42229686",
  "longitude" : "-87.79652510806585",
  "community_area" : "56",
  "type_of_service_request" : "Pothole in Street",
  "latitude" : "41.79217141716548",
  "street_address" : "7000 W ARCHER AVE"
}
, {
  "zip" : "60623",
  "police_district" : "10",
  "location" : {
    "needs_recoding" : false,
    "longitude" : "-87.71952510717976",
    "latitude" : "41.836857331801646"
  },
  "status" : "Completed",
  "service_request_number" : "14-01886474",
  "number_of_potholes_filled_on_block" : "3",
  "current_activity" : "Final Outcome",
  "x_coordinate" : "1151521.36852496",
  "completion_date" : "2014-11-01T00:00:00",
  "creation_date" : "2014-11-01T00:00:00",
  "ward" : "22",
  "most_recent_action" : "Pothole Patched",
  "y_coordinate" : "1883778.86613186",
  "longitude" : "-87.71952510717976",
  "community_area" : "30",
  "type_of_service_request" : "Pothole in Street",
  "latitude" : "41.836857331801646",
  "street_address" : "3801 W 31ST ST"
}
, {
  "zip" : "60609",
  "police_district" : "9",
  "location" : {
    "needs_recoding" : false,
    "longitude" : "-87.68421558109073",
    "latitude" : "41.826746156730266"
  },
  "status" : "Open - Dup",
  "service_request_number" : "14-01885984",
  "x_coordinate" : "1161123.29992544",
  "creation_date" : "2014-11-01T00:00:00",
  "ward" : "11",
  "y_coordinate" : "1880253.52570685",
  "longitude" : "-87.68421558109073",
  "community_area" : "59",
  "type_of_service_request" : "Pothole in Street",
  "latitude" : "41.826746156730266",
  "street_address" : "3653 S WESTERN BLVD"
}
, {
  "zip" : "60639",
  "police_district" : "25",
  "location" : {
    "needs_recoding" : false,
    "longitude" : "-87.77226249713559",
    "latitude" : "41.92522191280357"
  },
  "status" : "Open - Dup",
  "service_request_number" : "14-01886004",
  "x_coordinate" : "1136981.10576842",
  "creation_date" : "2014-11-01T00:00:00",
  "ward" : "30",
  "y_coordinate" : "1915649.4671892",
  "longitude" : "-87.77226249713559",
  "community_area" : "19",
  "type_of_service_request" : "Pothole in Street",
  "latitude" : "41.92522191280357",
  "street_address" : "2444 N MONITOR AVE"
}
, {
  "zip" : "60634",
  "police_district" : "25",
  "location" : {
    "needs_recoding" : false,
    "longitude" : "-87.78728317170345",
    "latitude" : "41.937751962481705"
  },
  "status" : "Open - Dup",
  "service_request_number" : "14-01886065",
  "x_coordinate" : "1132864.31798518",
  "creation_date" : "2014-11-01T00:00:00",
  "ward" : "36",
  "y_coordinate" : "1920196.53150477",
  "longitude" : "-87.78728317170345",
  "community_area" : "19",
  "type_of_service_request" : "Pothole in Street",
  "latitude" : "41.937751962481705",
  "street_address" : "3142 N NAGLE AVE"
}
, {
  "zip" : "60634",
  "police_district" : "16",
  "location" : {
    "needs_recoding" : false,
    "longitude" : "-87.78961209664504",
    "latitude" : "41.93971291579704"
  },
  "status" : "Open - Dup",
  "service_request_number" : "14-01886133",
  "x_coordinate" : "1132152.8967783",
  "creation_date" : "2014-11-01T00:00:00",
  "ward" : "36",
  "y_coordinate" : "1920890.09870303",
  "longitude" : "-87.78961209664504",
  "community_area" : "17",
  "type_of_service_request" : "Pothole in Street",
  "latitude" : "41.93971291579704",
  "street_address" : "3249 N NEENAH AVE"
}
, {
  "zip" : "60646",
  "police_district" : "16",
  "location" : {
    "needs_recoding" : false,
    "longitude" : "-87.78730495693216",
    "latitude" : "41.99693702885908"
  },
  "status" : "Open - Dup",
  "service_request_number" : "14-01886418",
  "x_coordinate" : "1132619.30798132",
  "creation_date" : "2014-11-01T00:00:00",
  "ward" : "45",
  "y_coordinate" : "1941956.44052776",
  "longitude" : "-87.78730495693216",
  "community_area" : "10",
  "type_of_service_request" : "Pothole in Street",
  "latitude" : "41.99693702885908",
  "street_address" : "6377 N MILWAUKEE AVE"
}
, {
  "zip" : "60641",
  "police_district" : "16",
  "location" : {
    "needs_recoding" : false,
    "longitude" : "-87.75035397782122",
    "latitude" : "41.958750993331705"
  },
  "status" : "Open - Dup",
  "service_request_number" : "14-01886711",
  "x_coordinate" : "1142861.33783343",
  "creation_date" : "2014-11-01T00:00:00",
  "ward" : "45",
  "y_coordinate" : "1928139.16077801",
  "longitude" : "-87.75035397782122",
  "community_area" : "15",
  "type_of_service_request" : "Pothole in Street",
  "latitude" : "41.958750993331705",
  "street_address" : "4909 W CULLOM AVE"
}
, {
  "zip" : "60629",
  "police_district" : "8",
  "location" : {
    "needs_recoding" : false,
    "longitude" : "-87.71832997522104",
    "latitude" : "41.79051342050108"
  },
  "status" : "Open - Dup",
  "service_request_number" : "14-01886841",
  "x_coordinate" : "1152002.79477626",
  "creation_date" : "2014-11-01T00:00:00",
  "ward" : "13",
  "y_coordinate" : "1866871.20069033",
  "longitude" : "-87.71832997522104",
  "community_area" : "62",
  "type_of_service_request" : "Pothole in Street",
  "latitude" : "41.79051342050108",
  "street_address" : "5632 S HAMLIN AVE"
}
, {
  "zip" : "60653",
  "police_district" : "2",
  "location" : {
    "needs_recoding" : false,
    "longitude" : "-87.62008629614316",
    "latitude" : "41.82194088052923"
  },
  "status" : "Open",
  "service_request_number" : "14-01884893",
  "x_coordinate" : "1178698.78178655",
  "creation_date" : "2014-11-01T00:00:00",
  "ward" : "3",
  "y_coordinate" : "1878547.17027738",
  "longitude" : "-87.62008629614316",
  "community_area" : "38",
  "type_of_service_request" : "Pothole in Street",
  "latitude" : "41.82194088052923",
  "street_address" : "4000 S PRAIRIE AVE"
}
, {
  "zip" : "60639",
  "police_district" : "25",
  "location" : {
    "needs_recoding" : false,
    "longitude" : "-87.77201377770052",
    "latitude" : "41.91822360611336"
  },
  "status" : "Open",
  "service_request_number" : "14-01885142",
  "x_coordinate" : "1137061.00001789",
  "creation_date" : "2014-11-01T00:00:00",
  "ward" : "29",
  "y_coordinate" : "1913238.34932746",
  "longitude" : "-87.77201377770052",
  "community_area" : "19",
  "type_of_service_request" : "Pothole in Street",
  "latitude" : "41.91822360611336",
  "street_address" : "2106 N MONITOR AVE"
}
, {
  "zip" : "60652",
  "police_district" : "8",
  "location" : {
    "needs_recoding" : false,
    "longitude" : "-87.70787770906031",
    "latitude" : "41.74412702192667"
  },
  "status" : "Open",
  "service_request_number" : "14-01885531",
  "x_coordinate" : "1155044.18278392",
  "creation_date" : "2014-11-01T00:00:00",
  "ward" : "18",
  "y_coordinate" : "1850014.04518429",
  "longitude" : "-87.70787770906031",
  "community_area" : "70",
  "type_of_service_request" : "Pothole in Street",
  "latitude" : "41.74412702192667",
  "street_address" : "3419 W 82ND ST"
}
, {
  "zip" : "60623",
  "police_district" : "10",
  "location" : {
    "needs_recoding" : false,
    "longitude" : "-87.71103877572374",
    "latitude" : "41.86233683842404"
  },
  "status" : "Open",
  "service_request_number" : "14-01885700",
  "x_coordinate" : "1153794.3174876",
  "creation_date" : "2014-11-01T00:00:00",
  "ward" : "24",
  "y_coordinate" : "1893080.8540888",
  "longitude" : "-87.71103877572374",
  "community_area" : "29",
  "type_of_service_request" : "Pothole in Street",
  "latitude" : "41.86233683842404",
  "street_address" : "3413 W DOUGLAS BLVD"
}
, {
  "zip" : "60639",
  "police_district" : "25",
  "location" : {
    "needs_recoding" : false,
    "longitude" : "-87.7612536607169",
    "latitude" : "41.92515563675773"
  },
  "status" : "Open",
  "service_request_number" : "14-01885890",
  "x_coordinate" : "1139976.13586847",
  "creation_date" : "2014-11-01T00:00:00",
  "ward" : "30",
  "y_coordinate" : "1915673.90039956",
  "longitude" : "-87.7612536607169",
  "community_area" : "19",
  "type_of_service_request" : "Pothole in Street",
  "latitude" : "41.92515563675773",
  "street_address" : "2436 N LONG AVE"
}
, {
  "zip" : "60625",
  "police_district" : "20",
  "location" : {
    "needs_recoding" : false,
    "longitude" : "-87.69914993054482",
    "latitude" : "41.978320783241955"
  },
  "status" : "Open",
  "service_request_number" : "14-01885918",
  "x_coordinate" : "1156728.54488252",
  "creation_date" : "2014-11-01T00:00:00",
  "ward" : "40",
  "y_coordinate" : "1935312.04148589",
  "longitude" : "-87.69914993054482",
  "community_area" : "4",
  "type_of_service_request" : "Pothole in Street",
  "latitude" : "41.978320783241955",
  "street_address" : "5320 N CALIFORNIA AVE"
}
, {
  "zip" : "60639",
  "police_district" : "25",
  "location" : {
    "needs_recoding" : false,
    "longitude" : "-87.77699607066249",
    "latitude" : "41.921414786550535"
  },
  "status" : "Open",
  "service_request_number" : "14-01885956",
  "x_coordinate" : "1135699.44578837",
  "creation_date" : "2014-11-01T00:00:00",
  "ward" : "29",
  "y_coordinate" : "1914312.4216733",
  "longitude" : "-87.77699607066249",
  "community_area" : "19",
  "type_of_service_request" : "Pothole in Street",
  "latitude" : "41.921414786550535",
  "street_address" : "2236 N MCVICKER AVE"
}
, {
  "zip" : "60625",
  "police_district" : "19",
  "location" : {
    "needs_recoding" : false,
    "longitude" : "-87.68879841909468",
    "latitude" : "41.96324877036154"
  },
  "status" : "Open",
  "ssa" : "21",
  "service_request_number" : "14-01885957",
  "x_coordinate" : "1159561.23809922",
  "creation_date" : "2014-11-01T00:00:00",
  "ward" : "47",
  "y_coordinate" : "1929817.27003421",
  "longitude" : "-87.68879841909468",
  "community_area" : "4",
  "type_of_service_request" : "Pothole in Street",
  "latitude" : "41.96324877036154",
  "street_address" : "2400 W SUNNYSIDE AVE"
}
, {
  "zip" : "60634",
  "police_district" : "16",
  "location" : {
    "needs_recoding" : false,
    "longitude" : "-87.78961209664504",
    "latitude" : "41.93971291579704"
  },
  "status" : "Open",
  "service_request_number" : "14-01886059",
  "x_coordinate" : "1132152.8967783",
  "creation_date" : "2014-11-01T00:00:00",
  "ward" : "36",
  "y_coordinate" : "1920890.09870303",
  "longitude" : "-87.78961209664504",
  "community_area" : "17",
  "type_of_service_request" : "Pothole in Street",
  "latitude" : "41.93971291579704",
  "street_address" : "3249 N NEENAH AVE"
}
, {
  "zip" : "60634",
  "police_district" : "25",
  "location" : {
    "needs_recoding" : false,
    "longitude" : "-87.78747149549335",
    "latitude" : "41.93657735349047"
  },
  "status" : "Open",
  "service_request_number" : "14-01886100",
  "x_coordinate" : "1132834.31798518",
  "creation_date" : "2014-11-01T00:00:00",
  "ward" : "36",
  "y_coordinate" : "1919913.23150477",
  "longitude" : "-87.78747149549335",
  "community_area" : "19",
  "type_of_service_request" : "Pothole in Street",
  "latitude" : "41.93657735349047",
  "street_address" : "6438 W BARRY AVE"
}
, {
  "zip" : "60619",
  "police_district" : "6",
  "location" : {
    "needs_recoding" : false,
    "longitude" : "-87.60364917679492",
    "latitude" : "41.74320753820891"
  },
  "status" : "Open",
  "service_request_number" : "14-01886119",
  "x_coordinate" : "1183345.43242496",
  "creation_date" : "2014-11-01T00:00:00",
  "ward" : "8",
  "y_coordinate" : "1849973.48493315",
  "longitude" : "-87.60364917679492",
  "community_area" : "44",
  "type_of_service_request" : "Pothole in Street",
  "latitude" : "41.74320753820891",
  "street_address" : "8325 S MARYLAND AVE"
}
, {
  "zip" : "60617",
  "police_district" : "4",
  "location" : {
    "needs_recoding" : false,
    "longitude" : "-87.57701167736762",
    "latitude" : "41.749231921530296"
  },
  "status" : "Open",
  "service_request_number" : "14-01886128",
  "x_coordinate" : "1190591.91289874",
  "creation_date" : "2014-11-01T00:00:00",
  "ward" : "8",
  "y_coordinate" : "1852201.18568261",
  "longitude" : "-87.57701167736762",
  "community_area" : "46",
  "type_of_service_request" : "Pothole in Street",
  "latitude" : "41.749231921530296",
  "street_address" : "8017 S EUCLID AVE"
}
, {
  "zip" : "60634",
  "police_district" : "16",
  "location" : {
    "needs_recoding" : false,
    "longitude" : "-87.78540952515164",
    "latitude" : "41.94005524383833"
  },
  "status" : "Open",
  "service_request_number" : "14-01886171",
  "x_coordinate" : "1133490.21871838",
  "creation_date" : "2014-11-01T00:00:00",
  "ward" : "36",
  "y_coordinate" : "1921266.06410982",
  "longitude" : "-87.78540952515164",
  "community_area" : "17",
  "type_of_service_request" : "Pothole in Street",
  "latitude" : "41.94005524383833",
  "street_address" : "6347 W SCHOOL ST"
}
, {
  "zip" : "60649",
  "police_district" : "3",
  "location" : {
    "needs_recoding" : false,
    "longitude" : "-87.5725767382759",
    "latitude" : "41.76266417013746"
  },
  "status" : "Open",
  "service_request_number" : "14-01886229",
  "x_coordinate" : "1191785.94821577",
  "creation_date" : "2014-11-01T00:00:00",
  "ward" : "5",
  "y_coordinate" : "1856983.12789905",
  "longitude" : "-87.5725767382759",
  "community_area" : "43",
  "type_of_service_request" : "Pothole in Street",
  "latitude" : "41.76266417013746",
  "street_address" : "2128 E 73RD ST"
}
, {
  "zip" : "60647",
  "police_district" : "14",
  "location" : {
    "needs_recoding" : false,
    "longitude" : "-87.69734853884921",
    "latitude" : "41.91751953844701"
  },
  "status" : "Open",
  "service_request_number" : "14-01886600",
  "x_coordinate" : "1157382.56978256",
  "creation_date" : "2014-11-01T00:00:00",
  "ward" : "35",
  "y_coordinate" : "1913165.14056594",
  "longitude" : "-87.69734853884921",
  "community_area" : "22",
  "type_of_service_request" : "Pothole in Street",
  "latitude" : "41.91751953844701",
  "street_address" : "2000 N CALIFORNIA AVE"
}
, {
  "zip" : "60629",
  "police_district" : "8",
  "location" : {
    "needs_recoding" : false,
    "longitude" : "-87.71692723141938",
    "latitude" : "41.79068889182266"
  },
  "status" : "Open",
  "service_request_number" : "14-01886834",
  "x_coordinate" : "1152480.92888738",
  "creation_date" : "2014-11-01T00:00:00",
  "ward" : "14",
  "y_coordinate" : "1866884.26020801",
  "longitude" : "-87.71692723141938",
  "community_area" : "62",
  "type_of_service_request" : "Pothole in Street",
  "latitude" : "41.79068889182266",
  "street_address" : "3728 W 56TH PL"
}
, {
  "zip" : "60634",
  "police_district" : "16",
  "location" : {
    "needs_recoding" : false,
    "longitude" : "-87.83960466852008",
    "latitude" : "41.95942779650077"
  },
  "status" : "Open",
  "service_request_number" : "14-01887101",
  "x_coordinate" : "1118567.56491752",
  "creation_date" : "2014-11-01T00:00:00",
  "ward" : "36",
  "y_coordinate" : "1928153.56970199",
  "longitude" : "-87.83960466852008",
  "community_area" : "76",
  "type_of_service_request" : "Pothole in Street",
  "latitude" : "41.95942779650077",
  "street_address" : "8500 W MONTROSE AVE"
}
, {
  "zip" : "60622",
  "police_district" : "12",
  "location" : {
    "needs_recoding" : false,
    "longitude" : "-87.68708477650006",
    "latitude" : "41.89942255693307"
  },
  "status" : "Open",
  "service_request_number" : "14-01887276",
  "x_coordinate" : "1160225.83822781",
  "creation_date" : "2014-11-01T00:00:00",
  "ward" : "1",
  "y_coordinate" : "1906586.7226958",
  "longitude" : "-87.68708477650006",
  "community_area" : "24",
  "type_of_service_request" : "Pothole in Street",
  "latitude" : "41.89942255693307",
  "street_address" : "1000 N WESTERN AVE"
}
, {
  "zip" : "60614",
  "police_district" : "18",
  "location" : {
    "needs_recoding" : false,
    "longitude" : "-87.655075100063",
    "latitude" : "41.9118084622851"
  },
  "status" : "Open",
  "service_request_number" : "14-01887447",
  "x_coordinate" : "1168974.14412082",
  "creation_date" : "2014-11-01T00:00:00",
  "ward" : "32",
  "y_coordinate" : "1911083.87021642",
  "longitude" : "-87.655075100063",
  "community_area" : "7",
  "type_of_service_request" : "Pothole in Street",
  "latitude" : "41.9118084622851",
  "street_address" : "1642 N KINGSBURY ST"
}
, {
  "zip" : "60639",
  "police_district" : "25",
  "location" : {
    "needs_recoding" : false,
    "longitude" : "-87.78040450737345",
    "latitude" : "41.92297396382281"
  },
  "status" : "Open",
  "service_request_number" : "14-01887564",
  "x_coordinate" : "1134688.20790872",
  "creation_date" : "2014-11-01T00:00:00",
  "ward" : "29",
  "y_coordinate" : "1914877.92591321",
  "longitude" : "-87.78040450737345",
  "community_area" : "19",
  "type_of_service_request" : "Pothole in Street",
  "latitude" : "41.92297396382281",
  "street_address" : "2341 N MELVINA AVE"
}
, {
  "zip" : "60657",
  "police_district" : "19",
  "location" : {
    "needs_recoding" : false,
    "longitude" : "-87.65893658154637",
    "latitude" : "41.93256623882575"
  },
  "status" : "Completed - Dup",
  "ssa" : "27",
  "service_request_number" : "14-01878907",
  "x_coordinate" : "1167815.0546288",
  "completion_date" : "2014-10-31T00:00:00",
  "creation_date" : "2014-10-31T00:00:00",
  "ward" : "32",
  "y_coordinate" : "1918735.53577714",
  "longitude" : "-87.65893658154637",
  "community_area" : "6",
  "type_of_service_request" : "Pothole in Street",
  "latitude" : "41.93256623882575",
  "street_address" : "2800 N LINCOLN AVE"
}
, {
  "zip" : "60636",
  "police_district" : "7",
  "location" : {
    "needs_recoding" : false,
    "longitude" : "-87.65931213689069",
    "latitude" : "41.77223762517908"
  },
  "status" : "Completed",
  "service_request_number" : "14-01878211",
  "number_of_potholes_filled_on_block" : "123",
  "current_activity" : "Final Outcome",
  "x_coordinate" : "1168149.60292478",
  "completion_date" : "2014-10-31T00:00:00",
  "creation_date" : "2014-10-31T00:00:00",
  "ward" : "17",
  "most_recent_action" : "Pothole Patched",
  "y_coordinate" : "1860323.9985663",
  "longitude" : "-87.65931213689069",
  "community_area" : "67",
  "type_of_service_request" : "Pothole in Street",
  "latitude" : "41.77223762517908",
  "street_address" : "6700 S LOOMIS BLVD"
}
, {
  "zip" : "60636",
  "police_district" : "7",
  "location" : {
    "needs_recoding" : false,
    "longitude" : "-87.65925731101193",
    "latitude" : "41.77034828571356"
  },
  "status" : "Completed",
  "service_request_number" : "14-01878215",
  "number_of_potholes_filled_on_block" : "26",
  "current_activity" : "Final Outcome",
  "x_coordinate" : "1168169.20039041",
  "completion_date" : "2014-10-31T00:00:00",
  "creation_date" : "2014-10-31T00:00:00",
  "ward" : "17",
  "most_recent_action" : "Pothole Patched",
  "y_coordinate" : "1859660.64549969",
  "longitude" : "-87.65925731101193",
  "community_area" : "67",
  "type_of_service_request" : "Pothole in Street",
  "latitude" : "41.77034828571356",
  "street_address" : "6800 S LOOMIS BLVD"
}
, {
  "zip" : "60614",
  "police_district" : "19",
  "location" : {
    "needs_recoding" : false,
    "longitude" : "-87.65642922396876",
    "latitude" : "41.93077574711898"
  },
  "status" : "Completed",
  "ssa" : "35",
  "service_request_number" : "14-01878938",
  "number_of_potholes_filled_on_block" : "170",
  "current_activity" : "Final Outcome",
  "x_coordinate" : "1168502.70187901",
  "completion_date" : "2014-10-31T00:00:00",
  "creation_date" : "2014-10-31T00:00:00",
  "ward" : "32",
  "most_recent_action" : "Pothole Patched",
  "y_coordinate" : "1918088.24358472",
  "longitude" : "-87.65642922396876",
  "community_area" : "7",
  "type_of_service_request" : "Pothole in Street",
  "latitude" : "41.93077574711898",
  "street_address" : "2700 N LINCOLN AVE"
}
, {
  "zip" : "60614",
  "police_district" : "19",
  "location" : {
    "needs_recoding" : false,
    "longitude" : "-87.65390175680133",
    "latitude" : "41.92897165071963"
  },
  "status" : "Completed",
  "ssa" : "35",
  "service_request_number" : "14-01878959",
  "number_of_potholes_filled_on_block" : "0",
  "current_activity" : "Final Outcome",
  "x_coordinate" : "1169179.32437943",
  "completion_date" : "2014-10-31T00:00:00",
  "creation_date" : "2014-10-31T00:00:00",
  "ward" : "32",
  "most_recent_action" : "No Potholes Found",
  "y_coordinate" : "1917453.16430567",
  "longitude" : "-87.65390175680133",
  "community_area" : "7",
  "type_of_service_request" : "Pothole in Street",
  "latitude" : "41.92897165071963",
  "street_address" : "2600 N LINCOLN AVE"
}
, {
  "zip" : "60614",
  "police_district" : "19",
  "location" : {
    "needs_recoding" : false,
    "longitude" : "-87.65142312393108",
    "latitude" : "41.927197634314304"
  },
  "status" : "Completed",
  "ssa" : "35",
  "service_request_number" : "14-01878981",
  "number_of_potholes_filled_on_block" : "53",
  "current_activity" : "Final Outcome",
  "x_coordinate" : "1169857.83796669",
  "completion_date" : "2014-10-31T00:00:00",
  "creation_date" : "2014-10-31T00:00:00",
  "ward" : "43",
  "most_recent_action" : "Pothole Patched",
  "y_coordinate" : "1916811.70767167",
  "longitude" : "-87.65142312393108",
  "community_area" : "7",
  "type_of_service_request" : "Pothole in Street",
  "latitude" : "41.927197634314304",
  "street_address" : "2500 N LINCOLN AVE"
}
, {
  "zip" : "60614",
  "police_district" : "19",
  "location" : {
    "needs_recoding" : false,
    "longitude" : "-87.64895098851831",
    "latitude" : "41.925435975228986"
  },
  "status" : "Completed",
  "ssa" : "35",
  "service_request_number" : "14-01878997",
  "number_of_potholes_filled_on_block" : "34",
  "current_activity" : "Final Outcome",
  "x_coordinate" : "1170542.91001292",
  "completion_date" : "2014-10-31T00:00:00",
  "creation_date" : "2014-10-31T00:00:00",
  "ward" : "43",
  "most_recent_action" : "Pothole Patched",
  "y_coordinate" : "1916168.87839463",
  "longitude" : "-87.64895098851831",
  "community_area" : "7",
  "type_of_service_request" : "Pothole in Street",
  "latitude" : "41.925435975228986",
  "street_address" : "2400 N LINCOLN AVE"
}
, {
  "zip" : "60614",
  "police_district" : "18",
  "location" : {
    "needs_recoding" : false,
    "longitude" : "-87.64642729029046",
    "latitude" : "41.923624465909924"
  },
  "status" : "Completed",
  "ssa" : "35",
  "service_request_number" : "14-01879011",
  "number_of_potholes_filled_on_block" : "0",
  "current_activity" : "Final Outcome",
  "x_coordinate" : "1171224.41577739",
  "completion_date" : "2014-10-31T00:00:00",
  "creation_date" : "2014-10-31T00:00:00",
  "ward" : "43",
  "most_recent_action" : "Completed Upon Arrival",
  "y_coordinate" : "1915523.64509788",
  "longitude" : "-87.64642729029046",
  "community_area" : "7",
  "type_of_service_request" : "Pothole in Street",
  "latitude" : "41.923624465909924",
  "street_address" : "2300 N LINCOLN AVE"
}
, {
  "zip" : "60614",
  "police_district" : "18",
  "location" : {
    "needs_recoding" : false,
    "longitude" : "-87.64401334594686",
    "latitude" : "41.921896999082946"
  },
  "status" : "Completed",
  "ssa" : "35",
  "service_request_number" : "14-01879028",
  "number_of_potholes_filled_on_block" : "3",
  "current_activity" : "Final Outcome",
  "x_coordinate" : "1171906.97096694",
  "completion_date" : "2014-10-31T00:00:00",
  "creation_date" : "2014-10-31T00:00:00",
  "ward" : "43",
  "most_recent_action" : "Pothole Patched",
  "y_coordinate" : "1914880.28511514",
  "longitude" : "-87.64401334594686",
  "community_area" : "7",
  "type_of_service_request" : "Pothole in Street",
  "latitude" : "41.921896999082946",
  "street_address" : "2200 N LINCOLN AVE"
}
, {
  "zip" : "60614",
  "police_district" : "18",
  "location" : {
    "needs_recoding" : false,
    "longitude" : "-87.64153064696721",
    "latitude" : "41.920119621761934"
  },
  "status" : "Completed",
  "service_request_number" : "14-01879049",
  "number_of_potholes_filled_on_block" : "7",
  "current_activity" : "Final Outcome",
  "x_coordinate" : "1172587.76850382",
  "completion_date" : "2014-10-31T00:00:00",
  "creation_date" : "2014-10-31T00:00:00",
  "ward" : "43",
  "most_recent_action" : "Pothole Patched",
  "y_coordinate" : "1914237.66918124",
  "longitude" : "-87.64153064696721",
  "community_area" : "7",
  "type_of_service_request" : "Pothole in Street",
  "latitude" : "41.920119621761934",
  "street_address" : "2100 N LINCOLN AVE"
}
, {
  "zip" : "60614",
  "police_district" : "18",
  "location" : {
    "needs_recoding" : false,
    "longitude" : "-87.63904157602845",
    "latitude" : "41.91833526842251"
  },
  "status" : "Completed",
  "service_request_number" : "14-01879058",
  "number_of_potholes_filled_on_block" : "8",
  "current_activity" : "Final Outcome",
  "x_coordinate" : "1173270.52139916",
  "completion_date" : "2014-10-31T00:00:00",
  "creation_date" : "2014-10-31T00:00:00",
  "ward" : "43",
  "most_recent_action" : "Pothole Patched",
  "y_coordinate" : "1913591.92432938",
  "longitude" : "-87.63904157602845",
  "community_area" : "7",
  "type_of_service_request" : "Pothole in Street",
  "latitude" : "41.91833526842251",
  "street_address" : "2000 N LINCOLN AVE"
}
, {
  "zip" : "60636",
  "police_district" : "7",
  "location" : {
    "needs_recoding" : false,
    "longitude" : "-87.65920953384027",
    "latitude" : "41.76852873883414"
  },
  "status" : "Completed",
  "service_request_number" : "14-01880757",
  "number_of_potholes_filled_on_block" : "34",
  "current_activity" : "Final Outcome",
  "x_coordinate" : "1168187.45387",
  "completion_date" : "2014-10-31T00:00:00",
  "creation_date" : "2014-10-31T00:00:00",
  "ward" : "17",
  "most_recent_action" : "Pothole Patched",
  "y_coordinate" : "1858997.72511254",
  "longitude" : "-87.65920953384027",
  "community_area" : "67",
  "type_of_service_request" : "Pothole in Street",
  "latitude" : "41.76852873883414",
  "street_address" : "6900 S LOOMIS BLVD"
}
, {
  "zip" : "60621",
  "police_district" : "7",
  "location" : {
    "needs_recoding" : false,
    "longitude" : "-87.64961266655138",
    "latitude" : "41.77614872112423"
  },
  "status" : "Completed",
  "service_request_number" : "14-01881011",
  "number_of_potholes_filled_on_block" : "14",
  "current_activity" : "Final Outcome",
  "x_coordinate" : "1170762.01610854",
  "completion_date" : "2014-10-31T00:00:00",
  "creation_date" : "2014-10-31T00:00:00",
  "ward" : "16",
  "most_recent_action" : "Pothole Patched",
  "y_coordinate" : "1861721.10352832",
  "longitude" : "-87.64961266655138",
  "community_area" : "68",
  "type_of_service_request" : "Pothole in Street",
  "latitude" : "41.77614872112423",
  "street_address" : "1000 W 65TH ST"
}
, {
  "zip" : "60636",
  "police_district" : "7",
  "location" : {
    "needs_recoding" : false,
    "longitude" : "-87.65422348474445",
    "latitude" : "41.774755146542006"
  },
  "status" : "Completed",
  "service_request_number" : "14-01881032",
  "number_of_potholes_filled_on_block" : "5",
  "current_activity" : "Final Outcome",
  "x_coordinate" : "1169446.04222384",
  "completion_date" : "2014-10-31T00:00:00",
  "creation_date" : "2014-10-31T00:00:00",
  "ward" : "17",
  "most_recent_action" : "Pothole Patched",
  "y_coordinate" : "1861411.90012454",
  "longitude" : "-87.65422348474445",
  "community_area" : "68",
  "type_of_service_request" : "Pothole in Street",
  "latitude" : "41.774755146542006",
  "street_address" : "6541 S RACINE AVE"
}
, {
  "zip" : "60621",
  "police_district" : "7",
  "location" : {
    "needs_recoding" : false,
    "longitude" : "-87.65333707274776",
    "latitude" : "41.77589534518774"
  },
  "status" : "Completed",
  "service_request_number" : "14-01881054",
  "number_of_potholes_filled_on_block" : "16",
  "current_activity" : "Final Outcome",
  "x_coordinate" : "1169768.41811897",
  "completion_date" : "2014-10-31T00:00:00",
  "creation_date" : "2014-10-31T00:00:00",
  "ward" : "17",
  "most_recent_action" : "Pothole Patched",
  "y_coordinate" : "1861694.39781632",
  "longitude" : "-87.65333707274776",
  "community_area" : "68",
  "type_of_service_request" : "Pothole in Street",
  "latitude" : "41.77589534518774",
  "street_address" : "6500 S MAY ST"
}
, {
  "zip" : "60621",
  "police_district" : "7",
  "location" : {
    "needs_recoding" : false,
    "longitude" : "-87.64804351970048",
    "latitude" : "41.76707816217413"
  },
  "status" : "Completed",
  "service_request_number" : "14-01881168",
  "number_of_potholes_filled_on_block" : "63",
  "current_activity" : "Final Outcome",
  "x_coordinate" : "1171193.97708467",
  "completion_date" : "2014-10-31T00:00:00",
  "creation_date" : "2014-10-31T00:00:00",
  "ward" : "17",
  "most_recent_action" : "Pothole Patched",
  "y_coordinate" : "1858418.68040382",
  "longitude" : "-87.64804351970048",
  "community_area" : "68",
  "type_of_service_request" : "Pothole in Street",
  "latitude" : "41.76707816217413",
  "street_address" : "930 W 70TH ST"
}
, {
  "zip" : "60636",
  "police_district" : "7",
  "location" : {
    "needs_recoding" : false,
    "longitude" : "-87.6591556636732",
    "latitude" : "41.766708026638895"
  },
  "status" : "Completed",
  "service_request_number" : "14-01881355",
  "number_of_potholes_filled_on_block" : "14",
  "current_activity" : "Final Outcome",
  "x_coordinate" : "1168206.88208019",
  "completion_date" : "2014-10-31T00:00:00",
  "creation_date" : "2014-10-31T00:00:00",
  "ward" : "17",
  "most_recent_action" : "Pothole Patched",
  "y_coordinate" : "1858334.16848475",
  "longitude" : "-87.6591556636732",
  "community_area" : "67",
  "type_of_service_request" : "Pothole in Street",
  "latitude" : "41.766708026638895",
  "street_address" : "7000 S LOOMIS BLVD"
}
, {
  "zip" : "60636",
  "police_district" : "7",
  "location" : {
    "needs_recoding" : false,
    "longitude" : "-87.65417919989643",
    "latitude" : "41.76516595833155"
  },
  "status" : "Completed",
  "service_request_number" : "14-01881465",
  "number_of_potholes_filled_on_block" : "33",
  "current_activity" : "Final Outcome",
  "x_coordinate" : "1169548.05938151",
  "completion_date" : "2014-10-31T00:00:00",
  "creation_date" : "2014-10-31T00:00:00",
  "ward" : "17",
  "most_recent_action" : "Pothole Patched",
  "y_coordinate" : "1857709.22731048",
  "longitude" : "-87.65417919989643",
  "community_area" : "67",
  "type_of_service_request" : "Pothole in Street",
  "latitude" : "41.76516595833155",
  "street_address" : "1200 W 71ST ST"
}
, {
  "zip" : "60621",
  "police_district" : "7",
  "location" : {
    "needs_recoding" : false,
    "longitude" : "-87.64945495721834",
    "latitude" : "41.76685745569575"
  },
  "status" : "Completed",
  "service_request_number" : "14-01881502",
  "number_of_potholes_filled_on_block" : "2",
  "current_activity" : "Final Outcome",
  "x_coordinate" : "1170853.5704899",
  "completion_date" : "2014-10-31T00:00:00",
  "creation_date" : "2014-10-31T00:00:00",
  "ward" : "17",
  "most_recent_action" : "Pothole Patched",
  "y_coordinate" : "1858409.4638728",
  "longitude" : "-87.64945495721834",
  "community_area" : "68",
  "type_of_service_request" : "Pothole in Street",
  "latitude" : "41.76685745569575",
  "street_address" : "7000 S MORGAN ST"
}
, {
  "zip" : "60621",
  "police_district" : "7",
  "location" : {
    "needs_recoding" : false,
    "longitude" : "-87.64950203423244",
    "latitude" : "41.76867294918042"
  },
  "status" : "Completed",
  "service_request_number" : "14-01881553",
  "number_of_potholes_filled_on_block" : "2",
  "current_activity" : "Final Outcome",
  "x_coordinate" : "1170835.47992814",
  "completion_date" : "2014-10-31T00:00:00",
  "creation_date" : "2014-10-31T00:00:00",
  "ward" : "17",
  "most_recent_action" : "Pothole Patched",
  "y_coordinate" : "1859070.77189004",
  "longitude" : "-87.64950203423244",
  "community_area" : "68",
  "type_of_service_request" : "Pothole in Street",
  "latitude" : "41.76867294918042",
  "street_address" : "6900 S MORGAN ST"
}
, {
  "zip" : "60621",
  "police_district" : "7",
  "location" : {
    "needs_recoding" : false,
    "longitude" : "-87.64955044619487",
    "latitude" : "41.77048932461556"
  },
  "status" : "Completed",
  "service_request_number" : "14-01881590",
  "number_of_potholes_filled_on_block" : "1",
  "current_activity" : "Final Outcome",
  "x_coordinate" : "1170816.75099024",
  "completion_date" : "2014-10-31T00:00:00",
  "creation_date" : "2014-10-31T00:00:00",
  "ward" : "17",
  "most_recent_action" : "Pothole Patched",
  "y_coordinate" : "1859732.87706803",
  "longitude" : "-87.64955044619487",
  "community_area" : "68",
  "type_of_service_request" : "Pothole in Street",
  "latitude" : "41.77048932461556",
  "street_address" : "6800 S MORGAN ST"
}
, {
  "zip" : "60621",
  "police_district" : "7",
  "location" : {
    "needs_recoding" : false,
    "longitude" : "-87.64947008869896",
    "latitude" : "41.77069154703773"
  },
  "status" : "Completed",
  "service_request_number" : "14-01881599",
  "number_of_potholes_filled_on_block" : "21",
  "current_activity" : "Final Outcome",
  "x_coordinate" : "1170816.75099024",
  "completion_date" : "2014-10-31T00:00:00",
  "creation_date" : "2014-10-31T00:00:00",
  "ward" : "17",
  "most_recent_action" : "Pothole Patched",
  "y_coordinate" : "1859732.87706803",
  "longitude" : "-87.64947008869896",
  "community_area" : "68",
  "type_of_service_request" : "Pothole in Street",
  "latitude" : "41.77069154703773",
  "street_address" : "1000 W 68TH ST"
}
, {
  "zip" : "60621",
  "police_district" : "7",
  "location" : {
    "needs_recoding" : false,
    "longitude" : "-87.64964599733383",
    "latitude" : "41.77412895382648"
  },
  "status" : "Completed",
  "service_request_number" : "14-01881604",
  "number_of_potholes_filled_on_block" : "10",
  "current_activity" : "Final Outcome",
  "x_coordinate" : "1170780.27516799",
  "completion_date" : "2014-10-31T00:00:00",
  "creation_date" : "2014-10-31T00:00:00",
  "ward" : "17",
  "most_recent_action" : "Pothole Patched",
  "y_coordinate" : "1861058.77102312",
  "longitude" : "-87.64964599733383",
  "community_area" : "68",
  "type_of_service_request" : "Pothole in Street",
  "latitude" : "41.77412895382648",
  "street_address" : "6600 S MORGAN ST"
}
, {
  "zip" : "60621",
  "police_district" : "7",
  "location" : {
    "needs_recoding" : false,
    "longitude" : "-87.64956559935001",
    "latitude" : "41.77433062144356"
  },
  "status" : "Completed",
  "service_request_number" : "14-01881609",
  "number_of_potholes_filled_on_block" : "5",
  "current_activity" : "Final Outcome",
  "x_coordinate" : "1170780.27516799",
  "completion_date" : "2014-10-31T00:00:00",
  "creation_date" : "2014-10-31T00:00:00",
  "ward" : "17",
  "most_recent_action" : "Pothole Patched",
  "y_coordinate" : "1861058.77102312",
  "longitude" : "-87.64956559935001",
  "community_area" : "68",
  "type_of_service_request" : "Pothole in Street",
  "latitude" : "41.77433062144356",
  "street_address" : "1000 W 66TH ST"
}
, {
  "zip" : "60636",
  "police_district" : "7",
  "location" : {
    "needs_recoding" : false,
    "longitude" : "-87.65449867800764",
    "latitude" : "41.774060449928044"
  },
  "status" : "Completed",
  "service_request_number" : "14-01881617",
  "number_of_potholes_filled_on_block" : "25",
  "current_activity" : "Final Outcome",
  "x_coordinate" : "1169456.72020325",
  "completion_date" : "2014-10-31T00:00:00",
  "creation_date" : "2014-10-31T00:00:00",
  "ward" : "17",
  "most_recent_action" : "Pothole Patched",
  "y_coordinate" : "1861023.46001172",
  "longitude" : "-87.65449867800764",
  "community_area" : "67",
  "type_of_service_request" : "Pothole in Street",
  "latitude" : "41.774060449928044",
  "street_address" : "6600 S RACINE AVE"
}
, {
  "zip" : "60659",
  "police_district" : "20",
  "location" : {
    "needs_recoding" : false,
    "longitude" : "-87.70276509836674",
    "latitude" : "41.986597388560085"
  },
  "status" : "Completed",
  "service_request_number" : "14-01881652",
  "number_of_potholes_filled_on_block" : "2",
  "current_activity" : "Final Outcome",
  "x_coordinate" : "1155648.94393438",
  "completion_date" : "2014-10-31T00:00:00",
  "creation_date" : "2014-10-31T00:00:00",
  "ward" : "40",
  "most_recent_action" : "Pothole Patched",
  "y_coordinate" : "1938146.86990001",
  "longitude" : "-87.70276509836674",
  "community_area" : "2",
  "type_of_service_request" : "Pothole in Street",
  "latitude" : "41.986597388560085",
  "street_address" : "5763 N RICHMOND ST"
}
, {
  "zip" : "60640",
  "police_district" : "20",
  "location" : {
    "needs_recoding" : false,
    "longitude" : "-87.67470268298472",
    "latitude" : "41.981456848834625"
  },
  "status" : "Completed",
  "ssa" : "31",
  "service_request_number" : "14-01878271",
  "number_of_potholes_filled_on_block" : "16",
  "current_activity" : "Final Outcome",
  "x_coordinate" : "1163371.6416822",
  "completion_date" : "2014-11-01T00:00:00",
  "creation_date" : "2014-10-31T00:00:00",
  "ward" : "40",
  "most_recent_action" : "Pothole Patched",
  "y_coordinate" : "1936344.18998925",
  "longitude" : "-87.67470268298472",
  "community_area" : "4",
  "type_of_service_request" : "Pothole in Street",
  "latitude" : "41.981456848834625",
  "street_address" : "5456 N RAVENSWOOD AVE"
}
, {
  "zip" : "60639",
  "police_district" : "25",
  "location" : {
    "needs_recoding" : false,
    "longitude" : "-87.7838369407593",
    "latitude" : "41.91472682797013"
  },
  "status" : "Open",
  "service_request_number" : "14-01880502",
  "x_coordinate" : "1133855.76992919",
  "creation_date" : "2014-10-31T00:00:00",
  "ward" : "29",
  "y_coordinate" : "1911956.383675",
  "longitude" : "-87.7838369407593",
  "community_area" : "25",
  "type_of_service_request" : "Pothole in Street",
  "latitude" : "41.91472682797013",
  "street_address" : "6340 W CORTLAND ST"
}
, {
  "zip" : "60628",
  "police_district" : "5",
  "location" : {
    "needs_recoding" : false,
    "longitude" : "-87.626382078193",
    "latitude" : "41.72159811476376"
  },
  "status" : "Open",
  "service_request_number" : "14-01880547",
  "x_coordinate" : "1177283.52102675",
  "creation_date" : "2014-10-31T00:00:00",
  "ward" : "21",
  "y_coordinate" : "1841968.10000253",
  "longitude" : "-87.626382078193",
  "community_area" : "49",
  "type_of_service_request" : "Pothole in Street",
  "latitude" : "41.72159811476376",
  "street_address" : "9500 S PERRY AVE"
}
, {
  "zip" : "60643",
  "police_district" : "22",
  "location" : {
    "needs_recoding" : false,
    "longitude" : "-87.67100706982355",
    "latitude" : "41.69933423803244"
  },
  "status" : "Open",
  "service_request_number" : "14-01880736",
  "x_coordinate" : "1165087.46520062",
  "creation_date" : "2014-10-31T00:00:00",
  "ward" : "19",
  "y_coordinate" : "1833952.27928772",
  "longitude" : "-87.67100706982355",
  "community_area" : "72",
  "type_of_service_request" : "Pothole in Street",
  "latitude" : "41.69933423803244",
  "street_address" : "10657 S LONGWOOD DR"
}
, {
  "zip" : "60643",
  "police_district" : "22",
  "location" : {
    "needs_recoding" : false,
    "longitude" : "-87.67405927981682",
    "latitude" : "41.700914067203115"
  },
  "status" : "Open",
  "service_request_number" : "14-01880743",
  "x_coordinate" : "1164245.63619995",
  "creation_date" : "2014-10-31T00:00:00",
  "ward" : "19",
  "y_coordinate" : "1834319.51907473",
  "longitude" : "-87.67405927981682",
  "community_area" : "72",
  "type_of_service_request" : "Pothole in Street",
  "latitude" : "41.700914067203115",
  "street_address" : "10601 S HOYNE AVE"
}
, {
  "zip" : "60651",
  "police_district" : "25",
  "location" : {
    "needs_recoding" : false,
    "longitude" : "-87.77544868321256",
    "latitude" : "41.909108410701414"
  },
  "status" : "Open",
  "service_request_number" : "14-01880833",
  "x_coordinate" : "1136073.18327255",
  "creation_date" : "2014-10-31T00:00:00",
  "ward" : "29",
  "y_coordinate" : "1909732.15267395",
  "longitude" : "-87.77544868321256",
  "community_area" : "25",
  "type_of_service_request" : "Pothole in Street",
  "latitude" : "41.909108410701414",
  "street_address" : "1557 N AUSTIN BLVD"
}
, {
  "zip" : "60631",
  "police_district" : "16",
  "location" : {
    "needs_recoding" : false,
    "longitude" : "-87.81377006463785",
    "latitude" : "42.01495510102516"
  },
  "status" : "Open",
  "service_request_number" : "14-01881037",
  "x_coordinate" : "1125400.72649114",
  "creation_date" : "2014-10-31T00:00:00",
  "ward" : "41",
  "y_coordinate" : "1948247.94360553",
  "longitude" : "-87.81377006463785",
  "community_area" : "9",
  "type_of_service_request" : "Pothole in Street",
  "latitude" : "42.01495510102516",
  "street_address" : "7355 N OLCOTT AVE"
}
, {
  "zip" : "60613",
  "police_district" : "19",
  "location" : {
    "needs_recoding" : false,
    "longitude" : "-87.64498107385364",
    "latitude" : "41.95571910826044"
  },
  "status" : "Open",
  "service_request_number" : "14-01881202",
  "x_coordinate" : "1171524.27862513",
  "creation_date" : "2014-10-31T00:00:00",
  "ward" : "46",
  "y_coordinate" : "1927205.32066684",
  "longitude" : "-87.64498107385364",
  "community_area" : "3",
  "type_of_service_request" : "Pothole in Street",
  "latitude" : "41.95571910826044",
  "street_address" : "4100 N NB OUTER LAKE SHORE DR"
}
, {
  "zip" : "60660",
  "police_district" : "20",
  "location" : {
    "needs_recoding" : false,
    "longitude" : "-87.66416772685949",
    "latitude" : "41.98716956611416"
  },
  "status" : "Open",
  "service_request_number" : "14-01881265",
  "x_coordinate" : "1166290.62716586",
  "creation_date" : "2014-10-31T00:00:00",
  "ward" : "48",
  "y_coordinate" : "1938569.55558829",
  "longitude" : "-87.66416772685949",
  "community_area" : "77",
  "type_of_service_request" : "Pothole in Street",
  "latitude" : "41.98716956611416",
  "street_address" : "1327 W EARLY AVE"
}
, {
  "zip" : "60655",
  "police_district" : "22",
  "location" : {
    "needs_recoding" : false,
    "longitude" : "-87.6844476719176",
    "latitude" : "41.684040210508094"
  },
  "status" : "Open",
  "service_request_number" : "14-01881880",
  "x_coordinate" : "1161455.43002398",
  "creation_date" : "2014-10-31T00:00:00",
  "ward" : "19",
  "y_coordinate" : "1828116.57996882",
  "longitude" : "-87.6844476719176",
  "community_area" : "75",
  "type_of_service_request" : "Pothole in Street",
  "latitude" : "41.684040210508094",
  "street_address" : "11515 S MAPLEWOOD AVE"
}
, {
  "zip" : "60622",
  "police_district" : "12",
  "location" : {
    "needs_recoding" : false,
    "longitude" : "-87.67948695567597",
    "latitude" : "41.90071615343902"
  },
  "status" : "Open",
  "service_request_number" : "14-01882226",
  "x_coordinate" : "1162212.09937712",
  "creation_date" : "2014-10-31T00:00:00",
  "ward" : "32",
  "y_coordinate" : "1907024.18588771",
  "longitude" : "-87.67948695567597",
  "community_area" : "24",
  "type_of_service_request" : "Pothole in Street",
  "latitude" : "41.90071615343902",
  "street_address" : "1041 N HOYNE AVE"
}
, {
  "zip" : "60640",
  "police_district" : "19",
  "location" : {
    "needs_recoding" : false,
    "longitude" : "-87.67393555845922",
    "latitude" : "41.96554578230888"
  },
  "status" : "Open",
  "ssa" : "31",
  "service_request_number" : "14-01882262",
  "x_coordinate" : "1163540.45457914",
  "creation_date" : "2014-10-31T00:00:00",
  "ward" : "47",
  "y_coordinate" : "1930655.2121702",
  "longitude" : "-87.67393555845922",
  "community_area" : "3",
  "type_of_service_request" : "Pothole in Street",
  "latitude" : "41.96554578230888",
  "street_address" : "4611 N RAVENSWOOD AVE"
}
, {
  "zip" : "60652",
  "police_district" : "8",
  "location" : {
    "needs_recoding" : false,
    "longitude" : "-87.73568938849162",
    "latitude" : "41.74141462931997"
  },
  "status" : "Open",
  "service_request_number" : "14-01882373",
  "x_coordinate" : "1147504.33617215",
  "creation_date" : "2014-10-31T00:00:00",
  "ward" : "18",
  "y_coordinate" : "1848869.72129631",
  "longitude" : "-87.73568938849162",
  "community_area" : "70",
  "type_of_service_request" : "Pothole in Street",
  "latitude" : "41.74141462931997",
  "street_address" : "4558 W 83RD PL"
}
, {
  "zip" : "60652",
  "police_district" : "8",
  "location" : {
    "needs_recoding" : false,
    "longitude" : "-87.73850896658777",
    "latitude" : "41.741882023379304"
  },
  "status" : "Open",
  "service_request_number" : "14-01882392",
  "x_coordinate" : "1146597.77331135",
  "creation_date" : "2014-10-31T00:00:00",
  "ward" : "18",
  "y_coordinate" : "1849134.48149948",
  "longitude" : "-87.73850896658777",
  "community_area" : "70",
  "type_of_service_request" : "Pothole in Street",
  "latitude" : "41.741882023379304",
  "street_address" : "4701 W 83RD ST"
}
, {
  "zip" : "60647",
  "police_district" : "25",
  "location" : {
    "needs_recoding" : false,
    "longitude" : "-87.71947474577735",
    "latitude" : "41.93111588694963"
  },
  "status" : "Open",
  "service_request_number" : "14-01882545",
  "x_coordinate" : "1151249.849705",
  "creation_date" : "2014-10-31T00:00:00",
  "ward" : "35",
  "y_coordinate" : "1917937.34362317",
  "longitude" : "-87.71947474577735",
  "community_area" : "22",
  "type_of_service_request" : "Pothole in Street",
  "latitude" : "41.93111588694963",
  "street_address" : "2735 N LAWNDALE AVE"
}
, {
  "zip" : "60649",
  "police_district" : "4",
  "location" : {
    "needs_recoding" : false,
    "longitude" : "-87.56279306930345",
    "latitude" : "41.75435766206497"
  },
  "status" : "Open",
  "service_request_number" : "14-01882735",
  "x_coordinate" : "1194533.64966812",
  "creation_date" : "2014-10-31T00:00:00",
  "ward" : "7",
  "y_coordinate" : "1854176.05172655",
  "longitude" : "-87.56279306930345",
  "community_area" : "43",
  "type_of_service_request" : "Pothole in Street",
  "latitude" : "41.75435766206497",
  "street_address" : "7734 S KINGSTON AVE"
}
, {
  "zip" : "60636",
  "police_district" : "7",
  "location" : {
    "needs_recoding" : false,
    "longitude" : "-87.67526716428348",
    "latitude" : "41.77921151620588"
  },
  "status" : "Open",
  "service_request_number" : "14-01882813",
  "x_coordinate" : "1163778.39099619",
  "creation_date" : "2014-10-31T00:00:00",
  "ward" : "15",
  "y_coordinate" : "1862854.60419514",
  "longitude" : "-87.67526716428348",
  "community_area" : "67",
  "type_of_service_request" : "Pothole in Street",
  "latitude" : "41.77921151620588",
  "street_address" : "6300 S SEELEY AVE"
}
, {
  "zip" : "60609",
  "police_district" : "9",
  "location" : {
    "needs_recoding" : false,
    "longitude" : "-87.67465218077871",
    "latitude" : "41.80118654250855"
  },
  "status" : "Open",
  "service_request_number" : "14-01882817",
  "x_coordinate" : "1163884.06577288",
  "creation_date" : "2014-10-31T00:00:00",
  "ward" : "16",
  "y_coordinate" : "1870848.32567281",
  "longitude" : "-87.67465218077871",
  "community_area" : "61",
  "type_of_service_request" : "Pothole in Street",
  "latitude" : "41.80118654250855",
  "street_address" : "5100 S DAMEN AVE"
}
, {
  "zip" : "60609",
  "police_district" : "9",
  "location" : {
    "needs_recoding" : false,
    "longitude" : "-87.6748310717804",
    "latitude" : "41.80841674471275"
  },
  "status" : "Open",
  "service_request_number" : "14-01882821",
  "x_coordinate" : "1163814.7198824",
  "creation_date" : "2014-10-31T00:00:00",
  "ward" : "12",
  "y_coordinate" : "1873499.54368056",
  "longitude" : "-87.6748310717804",
  "community_area" : "61",
  "type_of_service_request" : "Pothole in Street",
  "latitude" : "41.80841674471275",
  "street_address" : "4700 S DAMEN AVE"
}
, {
  "zip" : "60646",
  "police_district" : "17",
  "location" : {
    "needs_recoding" : false,
    "longitude" : "-87.73707993457089",
    "latitude" : "41.98673083951471"
  },
  "status" : "Open",
  "service_request_number" : "14-01883150",
  "x_coordinate" : "1146312.2496937",
  "creation_date" : "2014-10-31T00:00:00",
  "ward" : "39",
  "y_coordinate" : "1938360.27047464",
  "longitude" : "-87.73707993457089",
  "community_area" : "13",
  "type_of_service_request" : "Pothole in Street",
  "latitude" : "41.98673083951471",
  "street_address" : "5799 N LOWELL AVE"
}
, {
  "zip" : "60657",
  "police_district" : "19",
  "location" : {
    "needs_recoding" : false,
    "longitude" : "-87.6563946938417",
    "latitude" : "41.93998540683519"
  },
  "status" : "Open",
  "ssa" : "17",
  "service_request_number" : "14-01883307",
  "x_coordinate" : "1168597.53900601",
  "creation_date" : "2014-10-31T00:00:00",
  "ward" : "44",
  "y_coordinate" : "1921412.60859269",
  "longitude" : "-87.6563946938417",
  "community_area" : "6",
  "type_of_service_request" : "Pothole in Street",
  "latitude" : "41.93998540683519",
  "street_address" : "1056 W BELMONT AVE"
}
, {
  "zip" : "60641",
  "police_district" : "25",
  "location" : {
    "needs_recoding" : false,
    "longitude" : "-87.75019078214748",
    "latitude" : "41.93798229065384"
  },
  "status" : "Open",
  "service_request_number" : "14-01883360",
  "x_coordinate" : "1143016.26508286",
  "creation_date" : "2014-10-31T00:00:00",
  "ward" : "31",
  "y_coordinate" : "1920492.81130125",
  "longitude" : "-87.75019078214748",
  "community_area" : "19",
  "type_of_service_request" : "Pothole in Street",
  "latitude" : "41.93798229065384",
  "street_address" : "4920 W FLETCHER ST"
}
, {
  "zip" : "60629",
  "police_district" : "8",
  "location" : {
    "needs_recoding" : false,
    "longitude" : "-87.68642306958283",
    "latitude" : "41.78637498030067"
  },
  "status" : "Open",
  "ssa" : "59",
  "service_request_number" : "14-01884032",
  "x_coordinate" : "1160714.76481979",
  "creation_date" : "2014-10-31T00:00:00",
  "ward" : "16",
  "y_coordinate" : "1865450.8547333",
  "longitude" : "-87.68642306958283",
  "community_area" : "66",
  "type_of_service_request" : "Pothole in Street",
  "latitude" : "41.78637498030067",
  "street_address" : "5902 S CAMPBELL AVE"
}
, {
  "zip" : "60619",
  "police_district" : "6",
  "location" : {
    "needs_recoding" : false,
    "longitude" : "-87.60494686901276",
    "latitude" : "41.73675756677068"
  },
  "status" : "Open",
  "ssa" : "51",
  "service_request_number" : "14-01884275",
  "x_coordinate" : "1182938.295925",
  "creation_date" : "2014-10-31T00:00:00",
  "ward" : "6",
  "y_coordinate" : "1847464.029225",
  "longitude" : "-87.60494686901276",
  "community_area" : "44",
  "type_of_service_request" : "Pothole in Street",
  "latitude" : "41.73675756677068",
  "street_address" : "756 E 87TH ST"
}
, {
  "zip" : "60629",
  "police_district" : "8",
  "location" : {
    "needs_recoding" : false,
    "longitude" : "-87.72899958835467",
    "latitude" : "41.77818664862282"
  },
  "status" : "Open",
  "ssa" : "3",
  "service_request_number" : "14-01884277",
  "x_coordinate" : "1149125.133375",
  "creation_date" : "2014-10-31T00:00:00",
  "ward" : "13",
  "y_coordinate" : "1862344.610675",
  "longitude" : "-87.72899958835467",
  "community_area" : "65",
  "type_of_service_request" : "Pothole in Street",
  "latitude" : "41.77818664862282",
  "street_address" : "6314 S TRIPP AVE"
}
, {
  "zip" : "60628",
  "police_district" : "5",
  "location" : {
    "needs_recoding" : false,
    "longitude" : "-87.62880903859086",
    "latitude" : "41.72156744785569"
  },
  "status" : "Open",
  "service_request_number" : "14-01884603",
  "x_coordinate" : "1176621.01892167",
  "creation_date" : "2014-10-31T00:00:00",
  "ward" : "21",
  "y_coordinate" : "1841951.60410672",
  "longitude" : "-87.62880903859086",
  "community_area" : "49",
  "type_of_service_request" : "Pothole in Street",
  "latitude" : "41.72156744785569",
  "street_address" : "9500 S WENTWORTH AVE"
}
, {
  "zip" : "60646",
  "police_district" : "17",
  "location" : {
    "needs_recoding" : false,
    "longitude" : "-87.72873869397444",
    "latitude" : "41.993829397858164"
  },
  "status" : "Open - Dup",
  "service_request_number" : "14-01877833",
  "x_coordinate" : "1148562.63578034",
  "creation_date" : "2014-10-31T00:00:00",
  "ward" : "39",
  "y_coordinate" : "1940926.48991135",
  "longitude" : "-87.72873869397444",
  "community_area" : "13",
  "type_of_service_request" : "Pothole in Street",
  "latitude" : "41.993829397858164",
  "street_address" : "6205 N PULASKI RD"
}
, {
  "zip" : "60623",
  "police_district" : "10",
  "location" : {
    "needs_recoding" : false,
    "longitude" : "-87.71454295987577",
    "latitude" : "41.84974483185068"
  },
  "status" : "Open - Dup",
  "service_request_number" : "14-01878114",
  "x_coordinate" : "1152969.11190388",
  "creation_date" : "2014-10-31T00:00:00",
  "ward" : "22",
  "y_coordinate" : "1888487.1557657",
  "longitude" : "-87.71454295987577",
  "community_area" : "30",
  "type_of_service_request" : "Pothole in Street",
  "latitude" : "41.84974483185068",
  "street_address" : "3551 W 23RD ST"
}
, {
  "zip" : "60647",
  "police_district" : "14",
  "location" : {
    "needs_recoding" : false,
    "longitude" : "-87.70498725529903",
    "latitude" : "41.91570064889311"
  },
  "status" : "Open - Dup",
  "service_request_number" : "14-01878177",
  "x_coordinate" : "1155418.93950118",
  "creation_date" : "2014-10-31T00:00:00",
  "ward" : "35",
  "y_coordinate" : "1912460.48827917",
  "longitude" : "-87.70498725529903",
  "community_area" : "22",
  "type_of_service_request" : "Pothole in Street",
  "latitude" : "41.91570064889311",
  "street_address" : "3064 W CORTLAND ST"
}
, {
  "zip" : "60618",
  "police_district" : "19",
  "location" : {
    "needs_recoding" : false,
    "longitude" : "-87.68171173424253",
    "latitude" : "41.946712320532704"
  },
  "status" : "Open - Dup",
  "service_request_number" : "14-01878234",
  "x_coordinate" : "1161534.50712602",
  "creation_date" : "2014-10-31T00:00:00",
  "ward" : "47",
  "y_coordinate" : "1923886.05556962",
  "longitude" : "-87.68171173424253",
  "community_area" : "5",
  "type_of_service_request" : "Pothole in Street",
  "latitude" : "41.946712320532704",
  "street_address" : "2117 W ADDISON ST"
}
, {
  "zip" : "60631",
  "police_district" : "16",
  "location" : {
    "needs_recoding" : false,
    "longitude" : "-87.84658143139089",
    "latitude" : "41.9810872620708"
  },
  "status" : "Open - Dup",
  "service_request_number" : "14-01880028",
  "x_coordinate" : "1116634.88841031",
  "creation_date" : "2014-10-31T00:00:00",
  "ward" : "41",
  "y_coordinate" : "1936023.3649211",
  "longitude" : "-87.84658143139089",
  "community_area" : "76",
  "type_of_service_request" : "Pothole in Street",
  "latitude" : "41.9810872620708",
  "street_address" : "5600 N EAST RIVER RD"
}
, {
  "zip" : "60626",
  "police_district" : "24",
  "location" : {
    "needs_recoding" : false,
    "longitude" : "-87.67803883070306",
    "latitude" : "42.00514324532822"
  },
  "status" : "Open - Dup",
  "service_request_number" : "14-01880436",
  "x_coordinate" : "1162376.62021731",
  "creation_date" : "2014-10-31T00:00:00",
  "ward" : "49",
  "y_coordinate" : "1945186.40589126",
  "longitude" : "-87.67803883070306",
  "community_area" : "1",
  "type_of_service_request" : "Pothole in Street",
  "latitude" : "42.00514324532822",
  "street_address" : "1901 W PRATT BLVD"
}
, {
  "zip" : "60626",
  "police_district" : "24",
  "location" : {
    "needs_recoding" : false,
    "longitude" : "-87.67506698689449",
    "latitude" : "42.00506421876127"
  },
  "status" : "Open - Dup",
  "service_request_number" : "14-01880446",
  "x_coordinate" : "1163124.91083171",
  "creation_date" : "2014-10-31T00:00:00",
  "ward" : "49",
  "y_coordinate" : "1944976.0100085",
  "longitude" : "-87.67506698689449",
  "community_area" : "1",
  "type_of_service_request" : "Pothole in Street",
  "latitude" : "42.00506421876127",
  "street_address" : "6753 N RAVENSWOOD AVE"
}
, {
  "zip" : "60617",
  "police_district" : "4",
  "location" : {
    "needs_recoding" : false,
    "longitude" : "-87.58242131186593",
    "latitude" : "41.728647220437765"
  },
  "status" : "Open - Dup",
  "service_request_number" : "14-01880590",
  "x_coordinate" : "1189180.0459778",
  "creation_date" : "2014-10-31T00:00:00",
  "ward" : "8",
  "y_coordinate" : "1844643.52297607",
  "longitude" : "-87.58242131186593",
  "community_area" : "48",
  "type_of_service_request" : "Pothole in Street",
  "latitude" : "41.728647220437765",
  "street_address" : "1705 E 91ST PL"
}
, {
  "zip" : "60622",
  "police_district" : "12",
  "location" : {
    "needs_recoding" : false,
    "longitude" : "-87.69119754003373",
    "latitude" : "41.89740896649671"
  },
  "status" : "Open - Dup",
  "ssa" : "29",
  "service_request_number" : "14-01881572",
  "x_coordinate" : "1159155.54992213",
  "creation_date" : "2014-10-31T00:00:00",
  "ward" : "1",
  "y_coordinate" : "1905901.69287156",
  "longitude" : "-87.69119754003373",
  "community_area" : "24",
  "type_of_service_request" : "Pothole in Street",
  "latitude" : "41.89740896649671",
  "street_address" : "2547 W IOWA ST"
}
, {
  "zip" : "60622",
  "police_district" : "12",
  "location" : {
    "needs_recoding" : false,
    "longitude" : "-87.69052136043521",
    "latitude" : "41.89763475444525"
  },
  "status" : "Open - Dup",
  "service_request_number" : "14-01881576",
  "x_coordinate" : "1159289.24992213",
  "creation_date" : "2014-10-31T00:00:00",
  "ward" : "26",
  "y_coordinate" : "1905904.29287156",
  "longitude" : "-87.69052136043521",
  "community_area" : "24",
  "type_of_service_request" : "Pothole in Street",
  "latitude" : "41.89763475444525",
  "street_address" : "2528 W IOWA ST"
}
, {
  "zip" : "60644",
  "police_district" : "15",
  "location" : {
    "needs_recoding" : false,
    "longitude" : "-87.75276683831791",
    "latitude" : "41.88836665950867"
  },
  "status" : "Open - Dup",
  "service_request_number" : "14-01881808",
  "x_coordinate" : "1142294.45992273",
  "creation_date" : "2014-10-31T00:00:00",
  "ward" : "28",
  "y_coordinate" : "1902347.3746723",
  "longitude" : "-87.75276683831791",
  "community_area" : "25",
  "type_of_service_request" : "Pothole in Street",
  "latitude" : "41.88836665950867",
  "street_address" : "417 N LECLAIRE AVE"
}
, {
  "zip" : "60647",
  "police_district" : "14",
  "location" : {
    "needs_recoding" : false,
    "longitude" : "-87.70472683650887",
    "latitude" : "41.91548381115427"
  },
  "status" : "Open - Dup",
  "service_request_number" : "14-01881873",
  "x_coordinate" : "1155449.53950118",
  "creation_date" : "2014-10-31T00:00:00",
  "ward" : "26",
  "y_coordinate" : "1912460.98827917",
  "longitude" : "-87.70472683650887",
  "community_area" : "22",
  "type_of_service_request" : "Pothole in Street",
  "latitude" : "41.91548381115427",
  "street_address" : "3059 W CORTLAND ST"
}
, {
  "zip" : "60640",
  "police_district" : "20",
  "location" : {
    "needs_recoding" : false,
    "longitude" : "-87.66980605574528",
    "latitude" : "41.97782532868326"
  },
  "status" : "Open - Dup",
  "service_request_number" : "14-01882331",
  "x_coordinate" : "1164712.71611121",
  "creation_date" : "2014-10-31T00:00:00",
  "ward" : "40",
  "y_coordinate" : "1935051.50991455",
  "longitude" : "-87.66980605574528",
  "community_area" : "77",
  "type_of_service_request" : "Pothole in Street",
  "latitude" : "41.97782532868326",
  "street_address" : "5254 N ASHLAND AVE"
}
, {
  "zip" : "60646",
  "police_district" : "17",
  "location" : {
    "needs_recoding" : false,
    "longitude" : "-87.72873869397444",
    "latitude" : "41.993829397858164"
  },
  "status" : "Open - Dup",
  "service_request_number" : "14-01882427",
  "x_coordinate" : "1148562.63578034",
  "creation_date" : "2014-10-31T00:00:00",
  "ward" : "39",
  "y_coordinate" : "1940926.48991135",
  "longitude" : "-87.72873869397444",
  "community_area" : "13",
  "type_of_service_request" : "Pothole in Street",
  "latitude" : "41.993829397858164",
  "street_address" : "6205 N PULASKI RD"
}
, {
  "zip" : "60649",
  "police_district" : "3",
  "location" : {
    "needs_recoding" : false,
    "longitude" : "-87.5663556751396",
    "latitude" : "41.76733046234426"
  },
  "status" : "Open - Dup",
  "service_request_number" : "14-01882713",
  "x_coordinate" : "1193443.6102182",
  "creation_date" : "2014-10-31T00:00:00",
  "ward" : "5",
  "y_coordinate" : "1858762.05999773",
  "longitude" : "-87.5663556751396",
  "community_area" : "43",
  "type_of_service_request" : "Pothole in Street",
  "latitude" : "41.76733046234426",
  "street_address" : "7023 S SOUTH SHORE DR"
}
, {
  "zip" : "60624",
  "police_district" : "11",
  "location" : {
    "needs_recoding" : false,
    "longitude" : "-87.72831622395904",
    "latitude" : "41.87603337608918"
  },
  "status" : "Open - Dup",
  "service_request_number" : "14-01882861",
  "x_coordinate" : "1149067.8921275",
  "creation_date" : "2014-10-31T00:00:00",
  "ward" : "24",
  "y_coordinate" : "1898038.32838877",
  "longitude" : "-87.72831622395904",
  "community_area" : "26",
  "type_of_service_request" : "Pothole in Street",
  "latitude" : "41.87603337608918",
  "street_address" : "4107 W GLADYS AVE"
}
, {
  "zip" : "60647",
  "police_district" : "14",
  "location" : {
    "needs_recoding" : false,
    "longitude" : "-87.687433039654",
    "latitude" : "41.91282980745591"
  },
  "status" : "Open - Dup",
  "ssa" : "33",
  "service_request_number" : "14-01882871",
  "x_coordinate" : "1160091.97051355",
  "creation_date" : "2014-10-31T00:00:00",
  "ward" : "1",
  "y_coordinate" : "1911550.31001148",
  "longitude" : "-87.687433039654",
  "community_area" : "24",
  "type_of_service_request" : "Pothole in Street",
  "latitude" : "41.91282980745591",
  "street_address" : "1722 N WESTERN AVE"
}
, {
  "zip" : "60647",
  "police_district" : "14",
  "location" : {
    "needs_recoding" : false,
    "longitude" : "-87.68741732747348",
    "latitude" : "41.9122176967167"
  },
  "status" : "Open - Dup",
  "ssa" : "33",
  "service_request_number" : "14-01882889",
  "x_coordinate" : "1160097.37051355",
  "creation_date" : "2014-10-31T00:00:00",
  "ward" : "1",
  "y_coordinate" : "1911358.21001148",
  "longitude" : "-87.68741732747348",
  "community_area" : "24",
  "type_of_service_request" : "Pothole in Street",
  "latitude" : "41.9122176967167",
  "street_address" : "1702 N WESTERN AVE"
}
, {
  "zip" : "60653",
  "police_district" : "2",
  "location" : {
    "needs_recoding" : false,
    "longitude" : "-87.60146356872451",
    "latitude" : "41.81130192124114"
  },
  "status" : "Open - Dup",
  "ssa" : "47",
  "service_request_number" : "14-01883456",
  "x_coordinate" : "1183726.90738831",
  "creation_date" : "2014-10-31T00:00:00",
  "ward" : "4",
  "y_coordinate" : "1874717.28362949",
  "longitude" : "-87.60146356872451",
  "community_area" : "39",
  "type_of_service_request" : "Pothole in Street",
  "latitude" : "41.81130192124114",
  "street_address" : "1005 E 46TH ST"
}
, {
  "zip" : "60608",
  "police_district" : "12",
  "location" : {
    "needs_recoding" : false,
    "longitude" : "-87.65103925285413",
    "latitude" : "41.86181938075023"
  },
  "status" : "Open - Dup",
  "service_request_number" : "14-01883504",
  "x_coordinate" : "1170153.23521246",
  "creation_date" : "2014-10-31T00:00:00",
  "ward" : "25",
  "y_coordinate" : "1892937.08351204",
  "longitude" : "-87.65103925285413",
  "community_area" : "28",
  "type_of_service_request" : "Pothole in Street",
  "latitude" : "41.86181938075023",
  "street_address" : "1000 W 15TH ST"
}
, {
  "zip" : "60614",
  "police_district" : "18",
  "location" : {
    "needs_recoding" : false,
    "longitude" : "-87.65280961852635",
    "latitude" : "41.92528056072433"
  },
  "status" : "Open - Dup",
  "service_request_number" : "14-01883903",
  "x_coordinate" : "1169610.17988323",
  "creation_date" : "2014-10-31T00:00:00",
  "ward" : "43",
  "y_coordinate" : "1916141.43388219",
  "longitude" : "-87.65280961852635",
  "community_area" : "7",
  "type_of_service_request" : "Pothole in Street",
  "latitude" : "41.92528056072433",
  "street_address" : "941 W FULLERTON AVE"
}
, {
  "zip" : "60623",
  "police_district" : "10",
  "location" : {
    "needs_recoding" : false,
    "longitude" : "-87.71085860348106",
    "latitude" : "41.84977006054382"
  },
  "status" : "Open",
  "service_request_number" : "14-01877855",
  "x_coordinate" : "1153876.92178439",
  "creation_date" : "2014-10-31T00:00:00",
  "ward" : "22",
  "y_coordinate" : "1888501.81888832",
  "longitude" : "-87.71085860348106",
  "community_area" : "30",
  "type_of_service_request" : "Pothole in Street",
  "latitude" : "41.84977006054382",
  "street_address" : "3417 W 23RD ST"
}
, {
  "zip" : "60623",
  "police_district" : "10",
  "location" : {
    "needs_recoding" : false,
    "longitude" : "-87.71293067270292",
    "latitude" : "41.84975954628576"
  },
  "status" : "Open",
  "service_request_number" : "14-01877960",
  "x_coordinate" : "1153298.66398229",
  "creation_date" : "2014-10-31T00:00:00",
  "ward" : "22",
  "y_coordinate" : "1888490.54437565",
  "longitude" : "-87.71293067270292",
  "community_area" : "30",
  "type_of_service_request" : "Pothole in Street",
  "latitude" : "41.84975954628576",
  "street_address" : "3509 W 23RD ST"
}
, {
  "zip" : "60639",
  "police_district" : "25",
  "location" : {
    "needs_recoding" : false,
    "longitude" : "-87.76583363807329",
    "latitude" : "41.92372333687738"
  },
  "status" : "Open",
  "service_request_number" : "14-01878122",
  "x_coordinate" : "1138655.37353383",
  "creation_date" : "2014-10-31T00:00:00",
  "ward" : "37",
  "y_coordinate" : "1915091.03031645",
  "longitude" : "-87.76583363807329",
  "community_area" : "19",
  "type_of_service_request" : "Pothole in Street",
  "latitude" : "41.92372333687738",
  "street_address" : "2353 N CENTRAL AVE"
}
, {
  "zip" : "60639",
  "police_district" : "25",
  "location" : {
    "needs_recoding" : false,
    "longitude" : "-87.76600543365998",
    "latitude" : "41.9204982721057"
  },
  "status" : "Open",
  "service_request_number" : "14-01878134",
  "x_coordinate" : "1138690.14283391",
  "creation_date" : "2014-10-31T00:00:00",
  "ward" : "37",
  "y_coordinate" : "1914099.79309164",
  "longitude" : "-87.76600543365998",
  "community_area" : "19",
  "type_of_service_request" : "Pothole in Street",
  "latitude" : "41.9204982721057",
  "street_address" : "2200 N CENTRAL AVE"
}
, {
  "zip" : "60620",
  "police_district" : "22",
  "location" : {
    "needs_recoding" : false,
    "longitude" : "-87.66528293095597",
    "latitude" : "41.73344624593307"
  },
  "status" : "Open",
  "service_request_number" : "14-01878170",
  "x_coordinate" : "1166548.77111871",
  "creation_date" : "2014-10-31T00:00:00",
  "ward" : "21",
  "y_coordinate" : "1846243.44040023",
  "longitude" : "-87.66528293095597",
  "community_area" : "71",
  "type_of_service_request" : "Pothole in Street",
  "latitude" : "41.73344624593307",
  "street_address" : "8815 S PAULINA ST"
}
, {
  "zip" : "60641",
  "police_district" : "16",
  "location" : {
    "needs_recoding" : false,
    "longitude" : "-87.759738078423",
    "latitude" : "41.95337858659856"
  },
  "status" : "Open",
  "service_request_number" : "14-01878627",
  "x_coordinate" : "1140309.48949156",
  "creation_date" : "2014-10-31T00:00:00",
  "ward" : "38",
  "y_coordinate" : "1926084.38031069",
  "longitude" : "-87.759738078423",
  "community_area" : "15",
  "type_of_service_request" : "Pothole in Street",
  "latitude" : "41.95337858659856",
  "street_address" : "5300 W IRVING PARK RD"
}
, {
  "zip" : "60619",
  "police_district" : "6",
  "location" : {
    "needs_recoding" : false,
    "longitude" : "-87.60565160288982",
    "latitude" : "41.74589990659345"
  },
  "status" : "Open",
  "ssa" : "51",
  "service_request_number" : "14-01879538",
  "x_coordinate" : "1182722.46289116",
  "creation_date" : "2014-10-31T00:00:00",
  "ward" : "6",
  "y_coordinate" : "1850792.83840196",
  "longitude" : "-87.60565160288982",
  "community_area" : "44",
  "type_of_service_request" : "Pothole in Street",
  "latitude" : "41.74589990659345",
  "street_address" : "746 E 82ND ST"
}
, {
  "zip" : "60619",
  "police_district" : "3",
  "location" : {
    "needs_recoding" : false,
    "longitude" : "-87.59509624771277",
    "latitude" : "41.76245242231949"
  },
  "status" : "Open",
  "service_request_number" : "14-01879880",
  "x_coordinate" : "1185654.1607891",
  "creation_date" : "2014-10-31T00:00:00",
  "ward" : "5",
  "y_coordinate" : "1856852.40081326",
  "longitude" : "-87.59509624771277",
  "community_area" : "69",
  "type_of_service_request" : "Pothole in Street",
  "latitude" : "41.76245242231949",
  "street_address" : "1216 E 73RD ST"
}
, {
  "zip" : "60628",
  "police_district" : "5",
  "location" : {
    "needs_recoding" : false,
    "longitude" : "-87.60762445965038",
    "latitude" : "41.70738447869574"
  },
  "status" : "Open",
  "ssa" : "41",
  "service_request_number" : "14-01880005",
  "x_coordinate" : "1182450.840705",
  "creation_date" : "2014-10-31T00:00:00",
  "ward" : "9",
  "y_coordinate" : "1836807.96717075",
  "longitude" : "-87.60762445965038",
  "community_area" : "49",
  "type_of_service_request" : "Pothole in Street",
  "latitude" : "41.70738447869574",
  "street_address" : "10300 S DAUPHIN AVE"
}
, {
  "zip" : "60614",
  "police_district" : "19",
  "location" : {
    "needs_recoding" : false,
    "longitude" : "-87.64984444987597",
    "latitude" : "41.92736547750465"
  },
  "status" : "Open",
  "ssa" : "35",
  "service_request_number" : "14-01880071",
  "x_coordinate" : "1170331.50998343",
  "creation_date" : "2014-10-31T00:00:00",
  "ward" : "43",
  "y_coordinate" : "1916824.73010993",
  "longitude" : "-87.64984444987597",
  "community_area" : "7",
  "type_of_service_request" : "Pothole in Street",
  "latitude" : "41.92736547750465",
  "street_address" : "820 W ALTGELD ST"
}
, {
  "zip" : "60632",
  "police_district" : "8",
  "location" : {
    "needs_recoding" : false,
    "longitude" : "-87.72673857454903",
    "latitude" : "41.80794188271902"
  },
  "status" : "Open",
  "service_request_number" : "14-01880111",
  "x_coordinate" : "1149667.62072926",
  "creation_date" : "2014-10-31T00:00:00",
  "ward" : "14",
  "y_coordinate" : "1873149.12899091",
  "longitude" : "-87.72673857454903",
  "community_area" : "57",
  "type_of_service_request" : "Pothole in Street",
  "latitude" : "41.80794188271902",
  "street_address" : "4114 W 47TH ST"
}
, {
  "zip" : "60666",
  "police_district" : "16",
  "location" : {
    "needs_recoding" : false,
    "longitude" : "-87.9023223582219",
    "latitude" : "41.97972879733707"
  },
  "status" : "Open",
  "service_request_number" : "14-01880353",
  "creation_date" : "2014-10-31T00:00:00",
  "ward" : "41",
  "longitude" : "-87.9023223582219",
  "community_area" : "76",
  "type_of_service_request" : "Pothole in Street",
  "latitude" : "41.97972879733707",
  "street_address" : "10000 W OHARE AIRPORT"
}
, {
  "zip" : "60647",
  "police_district" : "14",
  "location" : {
    "needs_recoding" : false,
    "longitude" : "-87.70739751424176",
    "latitude" : "41.92587758464418"
  },
  "status" : "Open",
  "service_request_number" : "14-01880405",
  "x_coordinate" : "1154625.56168946",
  "creation_date" : "2014-10-31T00:00:00",
  "ward" : "35",
  "y_coordinate" : "1916171.46656966",
  "longitude" : "-87.70739751424176",
  "community_area" : "22",
  "type_of_service_request" : "Pothole in Street",
  "latitude" : "41.92587758464418",
  "street_address" : "2432 N KEDZIE BLVD"
}
, {
  "zip" : "60624",
  "police_district" : "11",
  "location" : {
    "needs_recoding" : false,
    "longitude" : "-87.72095970730173",
    "latitude" : "41.86701907890688"
  },
  "status" : "Open",
  "service_request_number" : "14-01880406",
  "x_coordinate" : "1151131.49371038",
  "creation_date" : "2014-10-31T00:00:00",
  "ward" : "24",
  "y_coordinate" : "1894768.50010512",
  "longitude" : "-87.72095970730173",
  "community_area" : "29",
  "type_of_service_request" : "Pothole in Street",
  "latitude" : "41.86701907890688",
  "street_address" : "3819 W GRENSHAW ST"
}
, {
  "zip" : "60659",
  "police_district" : "24",
  "location" : {
    "needs_recoding" : false,
    "longitude" : "-87.69413870558172",
    "latitude" : "41.99234178871892"
  },